{
  "data": [
    {
      "id": 2,
      "region_id": 13,
      "name": "Тысменица",
      "county": "",
      "municipality": "Ивано-Франковская область",
      "latitude": 48.9,
      "longitude": 24.85
    },
    {
      "id": 763,
      "region_id": 13,
      "name": "Криховцы",
      "county": "",
      "municipality": "Ивано-Франковск, город",
      "latitude": 48.90543,
      "longitude": 24.71191
    },
    {
      "id": 4,
      "region_id": 11,
      "name": "Скалат",
      "county": "",
      "municipality": "Тернопольская область",
      "latitude": 49.43,
      "longitude": 25.98
    },
    {
      "id": 767,
      "region_id": 13,
      "name": "Угорники",
      "county": "",
      "municipality": "Ивано-Франковск, город",
      "latitude": 48.72269,
      "longitude": 24.85002
    },
    {
      "id": 769,
      "region_id": 13,
      "name": "Иваниковка",
      "county": "",
      "municipality": "Богородчанский район",
      "latitude": 48.83,
      "longitude": 24.63
    },
    {
      "id": 771,
      "region_id": 13,
      "name": "Бабче",
      "county": "",
      "municipality": "Богородчанский район",
      "latitude": 48.67,
      "longitude": 24.46
    },
    {
      "id": 775,
      "region_id": 13,
      "name": "Богородчаны",
      "county": "",
      "municipality": "Богородчанский район",
      "latitude": 48.80783,
      "longitude": 24.54095
    },
    {
      "id": 785,
      "region_id": 13,
      "name": "Богровка",
      "county": "",
      "municipality": "Богородчанский район",
      "latitude": 48.71709,
      "longitude": 24.27436
    },
    {
      "id": 787,
      "region_id": 13,
      "name": "Бойко",
      "county": "",
      "municipality": "Богородчанский район",
      "latitude": 49.31055,
      "longitude": 24.77765
    },
    {
      "id": 789,
      "region_id": 13,
      "name": "Глыбовка",
      "county": "",
      "municipality": "Богородчанский район",
      "latitude": 48.79269,
      "longitude": 24.44244
    },
    {
      "id": 791,
      "region_id": 13,
      "name": "Глубокое",
      "county": "",
      "municipality": "Богородчанский район",
      "latitude": 48.79711,
      "longitude": 24.76433
    },
    {
      "id": 793,
      "region_id": 13,
      "name": "Горохолин Лес",
      "county": "",
      "municipality": "Богородчанский район",
      "latitude": 48.73172,
      "longitude": 24.54697
    },
    {
      "id": 795,
      "region_id": 13,
      "name": "Горохолина",
      "county": "",
      "municipality": "Богородчанский район",
      "latitude": 48.76696,
      "longitude": 24.58581
    },
    {
      "id": 797,
      "region_id": 13,
      "name": "Грабовец",
      "county": "",
      "municipality": "Богородчанский район",
      "latitude": 48.74639,
      "longitude": 24.61761
    },
    {
      "id": 799,
      "region_id": 13,
      "name": "Гриневка",
      "county": "",
      "municipality": "Богородчанский район",
      "latitude": 48.85885,
      "longitude": 24.46297
    },
    {
      "id": 801,
      "region_id": 13,
      "name": "Гута",
      "county": "",
      "municipality": "Богородчанский район",
      "latitude": 48.65591,
      "longitude": 24.2146
    },
    {
      "id": 803,
      "region_id": 13,
      "name": "Диброва",
      "county": "",
      "municipality": "Богородчанский район",
      "latitude": 49.00984,
      "longitude": 23.98028
    },
    {
      "id": 805,
      "region_id": 13,
      "name": "Дзвиняч",
      "county": "",
      "municipality": "Богородчанский район",
      "latitude": 48.74815,
      "longitude": 24.42695
    },
    {
      "id": 807,
      "region_id": 13,
      "name": "Жураки",
      "county": "",
      "municipality": "Богородчанский район",
      "latitude": 48.73995,
      "longitude": 24.48696
    },
    {
      "id": 809,
      "region_id": 13,
      "name": "Забережье",
      "county": "",
      "municipality": "Богородчанский район",
      "latitude": 48.80484,
      "longitude": 24.64837
    },
    {
      "id": 811,
      "region_id": 13,
      "name": "Копачовка",
      "county": "",
      "municipality": "Богородчанский район",
      "latitude": 48.7253,
      "longitude": 24.58121
    },
    {
      "id": 813,
      "region_id": 13,
      "name": "Космач",
      "county": "",
      "municipality": "Богородчанский район",
      "latitude": 48.33439,
      "longitude": 24.81958
    },
    {
      "id": 815,
      "region_id": 13,
      "name": "Кривец",
      "county": "",
      "municipality": "Богородчанский район",
      "latitude": 48.72091,
      "longitude": 24.33462
    },
    {
      "id": 817,
      "region_id": 13,
      "name": "Кричка",
      "county": "",
      "municipality": "Богородчанский район",
      "latitude": 48.67556,
      "longitude": 24.32902
    },
    {
      "id": 819,
      "region_id": 13,
      "name": "Ласточка",
      "county": "",
      "municipality": "Богородчанский район",
      "latitude": 48.71731,
      "longitude": 24.51047
    },
    {
      "id": 27,
      "region_id": 5,
      "name": "Жолква",
      "county": "",
      "municipality": "Львовская область",
      "latitude": 50.06405,
      "longitude": 23.96485
    },
    {
      "id": 823,
      "region_id": 13,
      "name": "Луквица",
      "county": "",
      "municipality": "Богородчанский район",
      "latitude": 48.74411,
      "longitude": 24.25478
    },
    {
      "id": 825,
      "region_id": 13,
      "name": "Межгорье",
      "county": "",
      "municipality": "Богородчанский район",
      "latitude": 48.76,
      "longitude": 24.3
    },
    {
      "id": 827,
      "region_id": 13,
      "name": "Манява",
      "county": "",
      "municipality": "Богородчанский район",
      "latitude": 48.64906,
      "longitude": 24.36999
    },
    {
      "id": 829,
      "region_id": 13,
      "name": "Маркова",
      "county": "",
      "municipality": "Богородчанский район",
      "latitude": 48.6841,
      "longitude": 24.42729
    },
    {
      "id": 831,
      "region_id": 13,
      "name": "Монастырчаны",
      "county": "",
      "municipality": "Богородчанский район",
      "latitude": 48.71061,
      "longitude": 24.45158
    },
    {
      "id": 833,
      "region_id": 13,
      "name": "Нивочин",
      "county": "",
      "municipality": "Богородчанский район",
      "latitude": 48.86722,
      "longitude": 24.50879
    },
    {
      "id": 835,
      "region_id": 13,
      "name": "Подгорье",
      "county": "",
      "municipality": "Богородчанский район",
      "latitude": 48.78889,
      "longitude": 24.50659
    },
    {
      "id": 837,
      "region_id": 13,
      "name": "Пороги",
      "county": "",
      "municipality": "Богородчанский район",
      "latitude": 48.68461,
      "longitude": 24.24694
    },
    {
      "id": 839,
      "region_id": 13,
      "name": "Поховка",
      "county": "",
      "municipality": "Богородчанский район",
      "latitude": 48.8,
      "longitude": 24.6
    },
    {
      "id": 841,
      "region_id": 13,
      "name": "Раковец",
      "county": "",
      "municipality": "Богородчанский район",
      "latitude": 48.80271,
      "longitude": 25.30131
    },
    {
      "id": 843,
      "region_id": 13,
      "name": "Росильна",
      "county": "",
      "municipality": "Богородчанский район",
      "latitude": 48.77715,
      "longitude": 24.36912
    },
    {
      "id": 845,
      "region_id": 13,
      "name": "Саджава",
      "county": "",
      "municipality": "Богородчанский район",
      "latitude": 48.82208,
      "longitude": 24.47788
    },
    {
      "id": 847,
      "region_id": 13,
      "name": "Скобычевка",
      "county": "",
      "municipality": "Богородчанский район",
      "latitude": 48.83462,
      "longitude": 24.54657
    },
    {
      "id": 849,
      "region_id": 13,
      "name": "Солотвин",
      "county": "",
      "municipality": "Богородчанский район",
      "latitude": 48.70949,
      "longitude": 24.42105
    },
    {
      "id": 855,
      "region_id": 13,
      "name": "Старые Богородчаны",
      "county": "",
      "municipality": "Богородчанский район",
      "latitude": 48.83345,
      "longitude": 24.5222
    },
    {
      "id": 857,
      "region_id": 13,
      "name": "Старая Гута",
      "county": "",
      "municipality": "Богородчанский район",
      "latitude": 48.63069,
      "longitude": 24.20849
    },
    {
      "id": 859,
      "region_id": 13,
      "name": "Старуня",
      "county": "",
      "municipality": "Богородчанский район",
      "latitude": 48.70556,
      "longitude": 24.49756
    },
    {
      "id": 861,
      "region_id": 13,
      "name": "Хмелевка",
      "county": "",
      "municipality": "Богородчанский район",
      "latitude": 48.80601,
      "longitude": 24.38917
    },
    {
      "id": 863,
      "region_id": 13,
      "name": "Яблонька",
      "county": "",
      "municipality": "Богородчанский район",
      "latitude": 48.6975,
      "longitude": 24.29646
    },
    {
      "id": 871,
      "region_id": 13,
      "name": "Бубнище",
      "county": "",
      "municipality": "Болеховский район",
      "latitude": 49.04478,
      "longitude": 23.70761
    },
    {
      "id": 873,
      "region_id": 13,
      "name": "Буковец",
      "county": "",
      "municipality": "Болеховский район",
      "latitude": 48.19949,
      "longitude": 24.93937
    },
    {
      "id": 875,
      "region_id": 13,
      "name": "Гузеев",
      "county": "",
      "municipality": "Болеховский район",
      "latitude": 49.06843,
      "longitude": 23.90535
    },
    {
      "id": 877,
      "region_id": 13,
      "name": "Заречье",
      "county": "",
      "municipality": "Болеховский район",
      "latitude": 48.51776,
      "longitude": 24.64477
    },
    {
      "id": 879,
      "region_id": 13,
      "name": "Казаковка",
      "county": "",
      "municipality": "Болеховский район",
      "latitude": 48.97987,
      "longitude": 23.64384
    },
    {
      "id": 881,
      "region_id": 13,
      "name": "Междуречье",
      "county": "",
      "municipality": "Болеховский район",
      "latitude": 49.10563,
      "longitude": 23.94924
    },
    {
      "id": 883,
      "region_id": 13,
      "name": "Подбережье",
      "county": "",
      "municipality": "Болеховский район",
      "latitude": 49.05335,
      "longitude": 23.91923
    },
    {
      "id": 885,
      "region_id": 13,
      "name": "Поляница",
      "county": "",
      "municipality": "Болеховский район",
      "latitude": 49.02681,
      "longitude": 23.70426
    },
    {
      "id": 887,
      "region_id": 13,
      "name": "Сукиль",
      "county": "",
      "municipality": "Болеховский район",
      "latitude": 48.99265,
      "longitude": 23.62794
    },
    {
      "id": 889,
      "region_id": 13,
      "name": "Танява",
      "county": "",
      "municipality": "Болеховский район",
      "latitude": 49.10975,
      "longitude": 23.76533
    },
    {
      "id": 891,
      "region_id": 13,
      "name": "Тисов",
      "county": "",
      "municipality": "Болеховский район",
      "latitude": 49.05,
      "longitude": 23.78
    },
    {
      "id": 893,
      "region_id": 13,
      "name": "Ильцы",
      "county": "",
      "municipality": "Верховинский район",
      "latitude": 48.13146,
      "longitude": 24.77544
    },
    {
      "id": 895,
      "region_id": 13,
      "name": "Белая Река",
      "county": "",
      "municipality": "Верховинский район",
      "latitude": 47.96415,
      "longitude": 24.89203
    },
    {
      "id": 897,
      "region_id": 13,
      "name": "Белоберезка",
      "county": "",
      "municipality": "Верховинский район",
      "latitude": 48.17265,
      "longitude": 25.0381
    },
    {
      "id": 899,
      "region_id": 13,
      "name": "Барвинков",
      "county": "",
      "municipality": "Верховинский район",
      "latitude": 48.11749,
      "longitude": 25.03351
    },
    {
      "id": 901,
      "region_id": 13,
      "name": "Бережница",
      "county": "",
      "municipality": "Верховинский район",
      "latitude": 48.20037,
      "longitude": 24.84373
    },
    {
      "id": 320,
      "region_id": 22,
      "name": "Берестечко",
      "county": "",
      "municipality": "Верховинский район",
      "latitude": 48.10678,
      "longitude": 24.67851
    },
    {
      "id": 903,
      "region_id": 13,
      "name": "Быстрец",
      "county": "",
      "municipality": "Верховинский район",
      "latitude": 48.12352,
      "longitude": 24.6919
    },
    {
      "id": 905,
      "region_id": 13,
      "name": "Буковец",
      "county": "",
      "municipality": "Верховинский район",
      "latitude": 48.19949,
      "longitude": 24.93937
    },
    {
      "id": 907,
      "region_id": 13,
      "name": "Буркут",
      "county": "",
      "municipality": "Верховинский район",
      "latitude": 47.94043,
      "longitude": 24.69734
    },
    {
      "id": 909,
      "region_id": 13,
      "name": "Випче",
      "county": "",
      "municipality": "Верховинский район",
      "latitude": 48.20191,
      "longitude": 24.79385
    },
    {
      "id": 911,
      "region_id": 13,
      "name": "Великий Ходак",
      "county": "",
      "municipality": "Верховинский район",
      "latitude": 48.1736,
      "longitude": 24.69232
    },
    {
      "id": 913,
      "region_id": 13,
      "name": "Верхний Ясенев",
      "county": "",
      "municipality": "Верховинский район",
      "latitude": 48.1662,
      "longitude": 24.94599
    },
    {
      "id": 915,
      "region_id": 13,
      "name": "Верховина",
      "county": "",
      "municipality": "Верховинский район",
      "latitude": 48.15432,
      "longitude": 24.81969
    },
    {
      "id": 923,
      "region_id": 13,
      "name": "Выгода",
      "county": "",
      "municipality": "Верховинский район",
      "latitude": 48.13155,
      "longitude": 24.96858
    },
    {
      "id": 925,
      "region_id": 13,
      "name": "Волова",
      "county": "",
      "municipality": "Верховинский район",
      "latitude": 48.23718,
      "longitude": 24.70624
    },
    {
      "id": 927,
      "region_id": 13,
      "name": "Головы",
      "county": "",
      "municipality": "Верховинский район",
      "latitude": 48.06441,
      "longitude": 24.87182
    },
    {
      "id": 929,
      "region_id": 13,
      "name": "Голошина",
      "county": "",
      "municipality": "Верховинский район",
      "latitude": 47.88725,
      "longitude": 24.88588
    },
    {
      "id": 931,
      "region_id": 13,
      "name": "Грамотное",
      "county": "",
      "municipality": "Верховинский район",
      "latitude": 47.93298,
      "longitude": 24.82446
    },
    {
      "id": 77,
      "region_id": 16,
      "name": "Евпатория",
      "county": "",
      "municipality": "Крым",
      "latitude": 45.2,
      "longitude": 33.36
    },
    {
      "id": 935,
      "region_id": 13,
      "name": "Долгополье",
      "county": "",
      "municipality": "Верховинский район",
      "latitude": 48.07573,
      "longitude": 24.98279
    },
    {
      "id": 937,
      "region_id": 13,
      "name": "Замагора",
      "county": "",
      "municipality": "Верховинский район",
      "latitude": 48.10337,
      "longitude": 24.82872
    },
    {
      "id": 939,
      "region_id": 13,
      "name": "Зеленое",
      "county": "",
      "municipality": "Верховинский район",
      "latitude": 48.03606,
      "longitude": 24.75991
    },
    {
      "id": 941,
      "region_id": 13,
      "name": "Кохан",
      "county": "",
      "municipality": "Верховинский район",
      "latitude": 48.08,
      "longitude": 24.95
    },
    {
      "id": 943,
      "region_id": 13,
      "name": "Красник",
      "county": "",
      "municipality": "Верховинский район",
      "latitude": 48.1445,
      "longitude": 24.74159
    },
    {
      "id": 945,
      "region_id": 13,
      "name": "Красноилля",
      "county": "",
      "municipality": "Верховинский район",
      "latitude": 48.10728,
      "longitude": 24.90347
    },
    {
      "id": 947,
      "region_id": 13,
      "name": "Кривополье",
      "county": "",
      "municipality": "Верховинский район",
      "latitude": 48.19465,
      "longitude": 24.68986
    },
    {
      "id": 949,
      "region_id": 13,
      "name": "Криворивня",
      "county": "",
      "municipality": "Верховинский район",
      "latitude": 48.17369,
      "longitude": 24.89638
    },
    {
      "id": 951,
      "region_id": 13,
      "name": "Перекрестное",
      "county": "",
      "municipality": "Верховинский район",
      "latitude": 48.09658,
      "longitude": 24.92695
    },
    {
      "id": 953,
      "region_id": 13,
      "name": "Поляны",
      "county": "",
      "municipality": "Верховинский район",
      "latitude": 48.06812,
      "longitude": 24.95578
    },
    {
      "id": 955,
      "region_id": 13,
      "name": "Пробойновка",
      "county": "",
      "municipality": "Верховинский район",
      "latitude": 47.97261,
      "longitude": 24.82387
    },
    {
      "id": 957,
      "region_id": 13,
      "name": "Ровня",
      "county": "",
      "municipality": "Верховинский район",
      "latitude": 48.91,
      "longitude": 24.21
    },
    {
      "id": 959,
      "region_id": 13,
      "name": "Сеньковское",
      "county": "",
      "municipality": "Верховинский район",
      "latitude": 48.79711,
      "longitude": 24.76433
    },
    {
      "id": 961,
      "region_id": 13,
      "name": "Стаище",
      "county": "",
      "municipality": "Верховинский район",
      "latitude": 48.18588,
      "longitude": 24.73399
    },
    {
      "id": 963,
      "region_id": 13,
      "name": "Стебни",
      "county": "",
      "municipality": "Верховинский район",
      "latitude": 48.09852,
      "longitude": 24.98425
    },
    {
      "id": 965,
      "region_id": 13,
      "name": "Стовпни",
      "county": "",
      "municipality": "Верховинский район",
      "latitude": 47.98736,
      "longitude": 24.81988
    },
    {
      "id": 967,
      "region_id": 13,
      "name": "Топильче",
      "county": "",
      "municipality": "Верховинский район",
      "latitude": 48.08712,
      "longitude": 24.73849
    },
    {
      "id": 969,
      "region_id": 13,
      "name": "Устерики",
      "county": "",
      "municipality": "Верховинский район",
      "latitude": 48.12873,
      "longitude": 24.98219
    },
    {
      "id": 971,
      "region_id": 13,
      "name": "Хороцево",
      "county": "",
      "municipality": "Верховинский район",
      "latitude": 48.13023,
      "longitude": 25.02135
    },
    {
      "id": 973,
      "region_id": 13,
      "name": "Черемошна",
      "county": "",
      "municipality": "Верховинский район",
      "latitude": 48.04282,
      "longitude": 24.93106
    },
    {
      "id": 98,
      "region_id": 13,
      "name": "Бурштын",
      "county": "",
      "municipality": "Ивано-Франковская область",
      "latitude": 49.26306,
      "longitude": 24.62931
    },
    {
      "id": 977,
      "region_id": 13,
      "name": "Черная Река",
      "county": "",
      "municipality": "Верховинский район",
      "latitude": 48.07924,
      "longitude": 24.86475
    },
    {
      "id": 979,
      "region_id": 13,
      "name": "Яблуница",
      "county": "",
      "municipality": "Верховинский район",
      "latitude": 48.31,
      "longitude": 24.48
    },
    {
      "id": 981,
      "region_id": 13,
      "name": "Явирник",
      "county": "",
      "municipality": "Верховинский район",
      "latitude": 48.02454,
      "longitude": 24.74403
    },
    {
      "id": 983,
      "region_id": 13,
      "name": "Большевцы",
      "county": "",
      "municipality": "Галицкий район",
      "latitude": 49.18359,
      "longitude": 24.7463
    },
    {
      "id": 989,
      "region_id": 13,
      "name": "Бышев",
      "county": "",
      "municipality": "Галицкий район",
      "latitude": 49.1357,
      "longitude": 24.8733
    },
    {
      "id": 991,
      "region_id": 13,
      "name": "Блюдники",
      "county": "",
      "municipality": "Галицкий район",
      "latitude": 49.11037,
      "longitude": 24.62474
    },
    {
      "id": 993,
      "region_id": 13,
      "name": "Бовшов",
      "county": "",
      "municipality": "Галицкий район",
      "latitude": 49.20528,
      "longitude": 24.70427
    },
    {
      "id": 995,
      "region_id": 13,
      "name": "Бринь",
      "county": "",
      "municipality": "Галицкий район",
      "latitude": 49.04892,
      "longitude": 24.57003
    },
    {
      "id": 999,
      "region_id": 13,
      "name": "Бурштын",
      "county": "",
      "municipality": "Галицкий район",
      "latitude": 49.26057,
      "longitude": 24.62688
    },
    {
      "id": 1007,
      "region_id": 13,
      "name": "Викторов",
      "county": "",
      "municipality": "Галицкий район",
      "latitude": 49.05033,
      "longitude": 24.62892
    },
    {
      "id": 109,
      "region_id": 11,
      "name": "Шумск",
      "county": "",
      "municipality": "Тернопольская область",
      "latitude": 50.12088,
      "longitude": 26.11691
    },
    {
      "id": 1011,
      "region_id": 13,
      "name": "Высочанка",
      "county": "",
      "municipality": "Галицкий район",
      "latitude": 49.01804,
      "longitude": 24.582
    },
    {
      "id": 1013,
      "region_id": 13,
      "name": "Водники",
      "county": "",
      "municipality": "Галицкий район",
      "latitude": 49.07716,
      "longitude": 24.80888
    },
    {
      "id": 1015,
      "region_id": 13,
      "name": "Вороница",
      "county": "",
      "municipality": "Галицкий район",
      "latitude": 49.14213,
      "longitude": 24.84818
    },
    {
      "id": 5,
      "region_id": 13,
      "name": "Галич",
      "county": "",
      "municipality": "Галицкий район",
      "latitude": 49.11,
      "longitude": 24.73
    },
    {
      "id": 1025,
      "region_id": 13,
      "name": "Ганновцы",
      "county": "",
      "municipality": "Галицкий район",
      "latitude": 49.14808,
      "longitude": 24.66291
    },
    {
      "id": 1027,
      "region_id": 13,
      "name": "Делиево",
      "county": "",
      "municipality": "Галицкий район",
      "latitude": 49.1,
      "longitude": 24.86
    },
    {
      "id": 1029,
      "region_id": 13,
      "name": "Демешковцы",
      "county": "",
      "municipality": "Галицкий район",
      "latitude": 49.17143,
      "longitude": 24.65781
    },
    {
      "id": 1031,
      "region_id": 13,
      "name": "Демьянов",
      "county": "",
      "municipality": "Галицкий район",
      "latitude": 49.23794,
      "longitude": 24.63164
    },
    {
      "id": 1033,
      "region_id": 13,
      "name": "Дитятин",
      "county": "",
      "municipality": "Галицкий район",
      "latitude": 49.24006,
      "longitude": 24.87647
    },
    {
      "id": 1035,
      "region_id": 13,
      "name": "Дорогов",
      "county": "",
      "municipality": "Галицкий район",
      "latitude": 49.15668,
      "longitude": 24.53294
    },
    {
      "id": 1037,
      "region_id": 13,
      "name": "Дубовка",
      "county": "",
      "municipality": "Галицкий район",
      "latitude": 49.08,
      "longitude": 24.76
    },
    {
      "id": 1039,
      "region_id": 13,
      "name": "Жалиборы",
      "county": "",
      "municipality": "Галицкий район",
      "latitude": 49.24378,
      "longitude": 24.74225
    },
    {
      "id": 1041,
      "region_id": 13,
      "name": "Загорье-Кукольницкое",
      "county": "",
      "municipality": "Галицкий район",
      "latitude": 49.21406,
      "longitude": 24.81339
    },
    {
      "id": 1043,
      "region_id": 13,
      "name": "Заднестрянское",
      "county": "",
      "municipality": "Галицкий район",
      "latitude": 49.18599,
      "longitude": 24.68848
    },
    {
      "id": 1045,
      "region_id": 13,
      "name": "Залуква",
      "county": "",
      "municipality": "Галицкий район",
      "latitude": 49.11812,
      "longitude": 24.70893
    },
    {
      "id": 1047,
      "region_id": 13,
      "name": "Кинашов",
      "county": "",
      "municipality": "Галицкий район",
      "latitude": 49.22266,
      "longitude": 24.74621
    },
    {
      "id": 1049,
      "region_id": 13,
      "name": "Кинчаки",
      "county": "",
      "municipality": "Галицкий район",
      "latitude": 49.10617,
      "longitude": 24.93152
    },
    {
      "id": 1051,
      "region_id": 13,
      "name": "Колодиев",
      "county": "",
      "municipality": "Галицкий район",
      "latitude": 49.17447,
      "longitude": 24.54937
    },
    {
      "id": 1053,
      "region_id": 13,
      "name": "Комаров",
      "county": "",
      "municipality": "Галицкий район",
      "latitude": 49.07483,
      "longitude": 24.64522
    },
    {
      "id": 1055,
      "region_id": 13,
      "name": "Коростовичи",
      "county": "",
      "municipality": "Галицкий район",
      "latitude": 49.2502,
      "longitude": 24.66662
    },
    {
      "id": 1057,
      "region_id": 13,
      "name": "Кремидов",
      "county": "",
      "municipality": "Галицкий район",
      "latitude": 49.10116,
      "longitude": 24.91822
    },
    {
      "id": 1059,
      "region_id": 13,
      "name": "Крылос",
      "county": "",
      "municipality": "Галицкий район",
      "latitude": 49.08,
      "longitude": 24.7
    },
    {
      "id": 132,
      "region_id": 13,
      "name": "Ивано-Франковск",
      "county": "",
      "municipality": "",
      "latitude": 48.91819,
      "longitude": 24.71343
    },
    {
      "id": 1063,
      "region_id": 13,
      "name": "Куничи",
      "county": "",
      "municipality": "Галицкий район",
      "latitude": 49.30415,
      "longitude": 24.6308
    },
    {
      "id": 1065,
      "region_id": 13,
      "name": "Куров",
      "county": "",
      "municipality": "Галицкий район",
      "latitude": 49.2423,
      "longitude": 24.71618
    },
    {
      "id": 1067,
      "region_id": 13,
      "name": "Курипов",
      "county": "",
      "municipality": "Галицкий район",
      "latitude": 49.13711,
      "longitude": 24.64311
    },
    {
      "id": 1069,
      "region_id": 13,
      "name": "Куропатники",
      "county": "",
      "municipality": "Галицкий район",
      "latitude": 49.28435,
      "longitude": 24.64679
    },
    {
      "id": 1071,
      "region_id": 13,
      "name": "Ланы",
      "county": "",
      "municipality": "Галицкий район",
      "latitude": 49.08514,
      "longitude": 24.84741
    },
    {
      "id": 1073,
      "region_id": 13,
      "name": "Мариямполь",
      "county": "",
      "municipality": "Галицкий район",
      "latitude": 49.0378,
      "longitude": 24.85455
    },
    {
      "id": 1075,
      "region_id": 13,
      "name": "Медыня",
      "county": "",
      "municipality": "Галицкий район",
      "latitude": 49.09456,
      "longitude": 24.57594
    },
    {
      "id": 1077,
      "region_id": 13,
      "name": "Медуха",
      "county": "",
      "municipality": "Галицкий район",
      "latitude": 49.15,
      "longitude": 24.81
    },
    {
      "id": 1079,
      "region_id": 13,
      "name": "Межигорцы",
      "county": "",
      "municipality": "Галицкий район",
      "latitude": 49.12578,
      "longitude": 24.7932
    },
    {
      "id": 1081,
      "region_id": 13,
      "name": "Немшин",
      "county": "",
      "municipality": "Галицкий район",
      "latitude": 49.1726,
      "longitude": 24.62893
    },
    {
      "id": 1083,
      "region_id": 13,
      "name": "Набережное",
      "county": "",
      "municipality": "Галицкий район",
      "latitude": 49.24715,
      "longitude": 24.85727
    },
    {
      "id": 1085,
      "region_id": 13,
      "name": "Нараевка",
      "county": "",
      "municipality": "Галицкий район",
      "latitude": 49.22822,
      "longitude": 24.77502
    },
    {
      "id": 1087,
      "region_id": 13,
      "name": "Насташино",
      "county": "",
      "municipality": "Галицкий район",
      "latitude": 49.29855,
      "longitude": 24.60198
    },
    {
      "id": 1089,
      "region_id": 13,
      "name": "Новые Скоморохи",
      "county": "",
      "municipality": "Галицкий район",
      "latitude": 49.26115,
      "longitude": 24.78427
    },
    {
      "id": 1091,
      "region_id": 13,
      "name": "Новый Мартынов",
      "county": "",
      "municipality": "Галицкий район",
      "latitude": 49.218,
      "longitude": 24.5532
    },
    {
      "id": 1093,
      "region_id": 13,
      "name": "Озерцо",
      "county": "",
      "municipality": "Галицкий район",
      "latitude": 49.07814,
      "longitude": 24.96855
    },
    {
      "id": 1095,
      "region_id": 13,
      "name": "Озеряны",
      "county": "",
      "municipality": "Галицкий район",
      "latitude": 49.27913,
      "longitude": 24.69351
    },
    {
      "id": 1097,
      "region_id": 13,
      "name": "Остров",
      "county": "",
      "municipality": "Галицкий район",
      "latitude": 49.15988,
      "longitude": 24.6257
    },
    {
      "id": 151,
      "region_id": 6,
      "name": "Андрушевка",
      "county": "",
      "municipality": "Житомирская область",
      "latitude": 50.01691,
      "longitude": 29.01416
    },
    {
      "id": 1101,
      "region_id": 13,
      "name": "Перловцы",
      "county": "",
      "municipality": "Галицкий район",
      "latitude": 49.17217,
      "longitude": 24.60712
    },
    {
      "id": 1103,
      "region_id": 13,
      "name": "Подолье",
      "county": "",
      "municipality": "Галицкий район",
      "latitude": 49.26722,
      "longitude": 24.73401
    },
    {
      "id": 1105,
      "region_id": 13,
      "name": "Поплавники",
      "county": "",
      "municipality": "Галицкий район",
      "latitude": 49.15476,
      "longitude": 24.69267
    },
    {
      "id": 1107,
      "region_id": 13,
      "name": "Приднестровья",
      "county": "",
      "municipality": "Галицкий район",
      "latitude": 48.79711,
      "longitude": 24.76433
    },
    {
      "id": 1109,
      "region_id": 13,
      "name": "Пукасовцы",
      "county": "",
      "municipality": "Галицкий район",
      "latitude": 49.13551,
      "longitude": 24.65018
    },
    {
      "id": 157,
      "region_id": 13,
      "name": "Яремче",
      "county": "",
      "municipality": "Ивано-Франковская область",
      "latitude": 48.45863,
      "longitude": 24.55961
    },
    {
      "id": 1113,
      "region_id": 13,
      "name": "Садки",
      "county": "",
      "municipality": "Галицкий район",
      "latitude": 49.11102,
      "longitude": 24.95434
    },
    {
      "id": 1115,
      "region_id": 13,
      "name": "Сапогов",
      "county": "",
      "municipality": "Галицкий район",
      "latitude": 49.05282,
      "longitude": 24.61203
    },
    {
      "id": 1117,
      "region_id": 13,
      "name": "Слободка-Бильшивська",
      "county": "",
      "municipality": "Галицкий район",
      "latitude": 48.79711,
      "longitude": 24.76433
    },
    {
      "id": 1119,
      "region_id": 13,
      "name": "Слобода",
      "county": "",
      "municipality": "Галицкий район",
      "latitude": 49.26194,
      "longitude": 24.68612
    },
    {
      "id": 1121,
      "region_id": 13,
      "name": "Сокол",
      "county": "",
      "municipality": "Галицкий район",
      "latitude": 49.09522,
      "longitude": 24.63527
    },
    {
      "id": 1123,
      "region_id": 13,
      "name": "Старые Скоморохи",
      "county": "",
      "municipality": "Галицкий район",
      "latitude": 49.24983,
      "longitude": 24.7866
    },
    {
      "id": 1125,
      "region_id": 13,
      "name": "Старый Мартынов",
      "county": "",
      "municipality": "Галицкий район",
      "latitude": 49.20278,
      "longitude": 24.56696
    },
    {
      "id": 1127,
      "region_id": 13,
      "name": "Суботов",
      "county": "",
      "municipality": "Галицкий район",
      "latitude": 49.18649,
      "longitude": 24.57651
    },
    {
      "id": 1129,
      "region_id": 13,
      "name": "Темировцы",
      "county": "",
      "municipality": "Галицкий район",
      "latitude": 49.107,
      "longitude": 24.59812
    },
    {
      "id": 1131,
      "region_id": 13,
      "name": "Тенетники",
      "county": "",
      "municipality": "Галицкий район",
      "latitude": 49.23179,
      "longitude": 24.53384
    },
    {
      "id": 1133,
      "region_id": 13,
      "name": "Тумир",
      "county": "",
      "municipality": "Галицкий район",
      "latitude": 49.08146,
      "longitude": 24.88687
    },
    {
      "id": 1135,
      "region_id": 13,
      "name": "Тустань",
      "county": "",
      "municipality": "Галицкий район",
      "latitude": 49.13224,
      "longitude": 24.76492
    },
    {
      "id": 1137,
      "region_id": 13,
      "name": "Хохонев",
      "county": "",
      "municipality": "Галицкий район",
      "latitude": 49.22533,
      "longitude": 24.85836
    },
    {
      "id": 1139,
      "region_id": 13,
      "name": "Шевченково",
      "county": "",
      "municipality": "Галицкий район",
      "latitude": 48.52884,
      "longitude": 25.40774
    },
    {
      "id": 1141,
      "region_id": 13,
      "name": "Яблунов",
      "county": "",
      "municipality": "Галицкий район",
      "latitude": 49.2,
      "longitude": 24.85
    },
    {
      "id": 1143,
      "region_id": 13,
      "name": "Белка",
      "county": "",
      "municipality": "Городенковский район",
      "latitude": 48.77262,
      "longitude": 25.54008
    },
    {
      "id": 1145,
      "region_id": 13,
      "name": "Окно",
      "county": "",
      "municipality": "Городенковский район",
      "latitude": 48.66992,
      "longitude": 25.37306
    },
    {
      "id": 1147,
      "region_id": 13,
      "name": "Ольховке",
      "county": "",
      "municipality": "Городенковский район",
      "latitude": 48.79282,
      "longitude": 25.37774
    },
    {
      "id": 1149,
      "region_id": 13,
      "name": "Вербовцы",
      "county": "",
      "municipality": "Городенковский район",
      "latitude": 48.62612,
      "longitude": 25.37475
    },
    {
      "id": 177,
      "region_id": 5,
      "name": "Перемышляны",
      "county": "",
      "municipality": "Львовская область",
      "latitude": 49.66933,
      "longitude": 24.5591
    },
    {
      "id": 1153,
      "region_id": 13,
      "name": "Воронов",
      "county": "",
      "municipality": "Городенковский район",
      "latitude": 48.76108,
      "longitude": 25.29592
    },
    {
      "id": 1155,
      "region_id": 13,
      "name": "Глушков",
      "county": "",
      "municipality": "Городенковский район",
      "latitude": 48.64389,
      "longitude": 25.47529
    },
    {
      "id": 404,
      "region_id": 13,
      "name": "Городенка",
      "county": "",
      "municipality": "Городенковский район",
      "latitude": 48.6724,
      "longitude": 25.49625
    },
    {
      "id": 1167,
      "region_id": 13,
      "name": "Городница",
      "county": "",
      "municipality": "Городенковский район",
      "latitude": 48.69076,
      "longitude": 25.62787
    },
    {
      "id": 1169,
      "region_id": 13,
      "name": "Далешове",
      "county": "",
      "municipality": "Городенковский район",
      "latitude": 48.78665,
      "longitude": 25.48362
    },
    {
      "id": 1171,
      "region_id": 13,
      "name": "Дубко",
      "county": "",
      "municipality": "Городенковский район",
      "latitude": 48.78423,
      "longitude": 25.45978
    },
    {
      "id": 1173,
      "region_id": 13,
      "name": "Коленьки",
      "county": "",
      "municipality": "Городенковский район",
      "latitude": 48.79374,
      "longitude": 25.49905
    },
    {
      "id": 1175,
      "region_id": 13,
      "name": "Копачинцы",
      "county": "",
      "municipality": "Городенковский район",
      "latitude": 48.83968,
      "longitude": 25.3839
    },
    {
      "id": 1177,
      "region_id": 13,
      "name": "Корнов",
      "county": "",
      "municipality": "Городенковский район",
      "latitude": 48.79969,
      "longitude": 25.33706
    },
    {
      "id": 187,
      "region_id": 24,
      "name": "Ямполь",
      "county": "",
      "municipality": "Винницкая область",
      "latitude": 48.24314,
      "longitude": 28.28515
    },
    {
      "id": 1181,
      "region_id": 13,
      "name": "Кунисовцы",
      "county": "",
      "municipality": "Городенковский район",
      "latitude": 48.8183,
      "longitude": 25.37204
    },
    {
      "id": 1183,
      "region_id": 13,
      "name": "Лука",
      "county": "",
      "municipality": "Городенковский район",
      "latitude": 48.78462,
      "longitude": 25.27549
    },
    {
      "id": 1185,
      "region_id": 13,
      "name": "Михальче",
      "county": "",
      "municipality": "Городенковский район",
      "latitude": 48.78045,
      "longitude": 25.55517
    },
    {
      "id": 1187,
      "region_id": 13,
      "name": "Монастырек",
      "county": "",
      "municipality": "Городенковский район",
      "latitude": 48.82264,
      "longitude": 25.25915
    },
    {
      "id": 1189,
      "region_id": 13,
      "name": "Незвиско",
      "county": "",
      "municipality": "Городенковский район",
      "latitude": 48.77393,
      "longitude": 25.25245
    },
    {
      "id": 1191,
      "region_id": 13,
      "name": "Новоселовка",
      "county": "",
      "municipality": "Городенковский район",
      "latitude": 48.73131,
      "longitude": 25.34574
    },
    {
      "id": 1193,
      "region_id": 13,
      "name": "Олиево-Корнев",
      "county": "",
      "municipality": "Городенковский район",
      "latitude": 48.74052,
      "longitude": 25.3835
    },
    {
      "id": 195,
      "region_id": 25,
      "name": "Припять",
      "county": "",
      "municipality": "Киевская область",
      "latitude": 51.40649,
      "longitude": 30.05399
    },
    {
      "id": 1197,
      "region_id": 13,
      "name": "Островец",
      "county": "",
      "municipality": "Городенковский район",
      "latitude": 48.64417,
      "longitude": 25.2979
    },
    {
      "id": 1199,
      "region_id": 13,
      "name": "Передиванье",
      "county": "",
      "municipality": "Городенковский район",
      "latitude": 48.70744,
      "longitude": 25.6451
    },
    {
      "id": 1201,
      "region_id": 13,
      "name": "Поточище",
      "county": "",
      "municipality": "Городенковский район",
      "latitude": 48.74,
      "longitude": 25.58
    },
    {
      "id": 1203,
      "region_id": 13,
      "name": "Прикмище",
      "county": "",
      "municipality": "Городенковский район",
      "latitude": 48.62161,
      "longitude": 25.24013
    },
    {
      "id": 1205,
      "region_id": 13,
      "name": "Пробабин",
      "county": "",
      "municipality": "Городенковский район",
      "latitude": 48.66541,
      "longitude": 25.58509
    },
    {
      "id": 1207,
      "region_id": 13,
      "name": "Раковец",
      "county": "",
      "municipality": "Городенковский район",
      "latitude": 48.80271,
      "longitude": 25.30131
    },
    {
      "id": 1209,
      "region_id": 13,
      "name": "Рашков",
      "county": "",
      "municipality": "Городенковский район",
      "latitude": 48.72926,
      "longitude": 25.41993
    },
    {
      "id": 1211,
      "region_id": 13,
      "name": "Репужинцы",
      "county": "",
      "municipality": "Городенковский район",
      "latitude": 48.80119,
      "longitude": 25.46748
    },
    {
      "id": 1213,
      "region_id": 13,
      "name": "Рогиня",
      "county": "",
      "municipality": "Городенковский район",
      "latitude": 48.64198,
      "longitude": 25.33002
    },
    {
      "id": 1215,
      "region_id": 13,
      "name": "Росохач",
      "county": "",
      "municipality": "Городенковский район",
      "latitude": 48.6298,
      "longitude": 25.23938
    },
    {
      "id": 1217,
      "region_id": 13,
      "name": "Семаковцы",
      "county": "",
      "municipality": "Городенковский район",
      "latitude": 48.76,
      "longitude": 25.53
    },
    {
      "id": 1219,
      "region_id": 13,
      "name": "Семеновка",
      "county": "",
      "municipality": "Городенковский район",
      "latitude": 48.78347,
      "longitude": 25.31191
    },
    {
      "id": 1221,
      "region_id": 13,
      "name": "Серафинцы",
      "county": "",
      "municipality": "Городенковский район",
      "latitude": 48.64,
      "longitude": 25.55
    },
    {
      "id": 1223,
      "region_id": 13,
      "name": "Слободка",
      "county": "",
      "municipality": "Городенковский район",
      "latitude": 48.58792,
      "longitude": 25.35533
    },
    {
      "id": 1225,
      "region_id": 13,
      "name": "Сороки",
      "county": "",
      "municipality": "Городенковский район",
      "latitude": 48.6137,
      "longitude": 25.36501
    },
    {
      "id": 1227,
      "region_id": 13,
      "name": "Стрильче",
      "county": "",
      "municipality": "Городенковский район",
      "latitude": 48.68261,
      "longitude": 25.56623
    },
    {
      "id": 1229,
      "region_id": 13,
      "name": "Тишковцы",
      "county": "",
      "municipality": "Городенковский район",
      "latitude": 48.70374,
      "longitude": 25.36333
    },
    {
      "id": 213,
      "region_id": 16,
      "name": "Белогорск",
      "county": "",
      "municipality": "Крым",
      "latitude": 45.05,
      "longitude": 34.6
    },
    {
      "id": 1233,
      "region_id": 13,
      "name": "Торговица",
      "county": "",
      "municipality": "Городенковский район",
      "latitude": 48.59,
      "longitude": 25.43
    },
    {
      "id": 1235,
      "region_id": 13,
      "name": "Униж",
      "county": "",
      "municipality": "Городенковский район",
      "latitude": 48.81126,
      "longitude": 25.35349
    },
    {
      "id": 1237,
      "region_id": 13,
      "name": "Хвалибога",
      "county": "",
      "municipality": "Городенковский район",
      "latitude": 48.61153,
      "longitude": 25.29457
    },
    {
      "id": 1239,
      "region_id": 13,
      "name": "Хмелева",
      "county": "",
      "municipality": "Городенковский район",
      "latitude": 48.85,
      "longitude": 25.46
    },
    {
      "id": 1241,
      "region_id": 13,
      "name": "Чернелица",
      "county": "",
      "municipality": "Городенковский район",
      "latitude": 48.81,
      "longitude": 25.42
    },
    {
      "id": 1243,
      "region_id": 13,
      "name": "Чернятин",
      "county": "",
      "municipality": "Городенковский район",
      "latitude": 48.66155,
      "longitude": 25.45151
    },
    {
      "id": 1245,
      "region_id": 13,
      "name": "Чертовец",
      "county": "",
      "municipality": "Городенковский район",
      "latitude": 48.7,
      "longitude": 25.28
    },
    {
      "id": 1247,
      "region_id": 13,
      "name": "Якубовка",
      "county": "",
      "municipality": "Городенковский район",
      "latitude": 48.70459,
      "longitude": 25.45636
    },
    {
      "id": 1249,
      "region_id": 13,
      "name": "Ясенов-Польный",
      "county": "",
      "municipality": "Городенковский район",
      "latitude": 48.62262,
      "longitude": 25.52559
    },
    {
      "id": 1251,
      "region_id": 13,
      "name": "Ангеливка",
      "county": "",
      "municipality": "Долинский район",
      "latitude": 48.87111,
      "longitude": 23.92521
    },
    {
      "id": 1253,
      "region_id": 13,
      "name": "Белеев",
      "county": "",
      "municipality": "Долинский район",
      "latitude": 49.09899,
      "longitude": 24.03411
    },
    {
      "id": 1255,
      "region_id": 13,
      "name": "Большая Турья",
      "county": "",
      "municipality": "Долинский район",
      "latitude": 49.12648,
      "longitude": 24.06736
    },
    {
      "id": 1257,
      "region_id": 13,
      "name": "Выгодовка",
      "county": "",
      "municipality": "Долинский район",
      "latitude": 48.99773,
      "longitude": 23.88943
    },
    {
      "id": 1259,
      "region_id": 13,
      "name": "Выгода",
      "county": "",
      "municipality": "Долинский район",
      "latitude": 48.13155,
      "longitude": 24.96858
    },
    {
      "id": 1261,
      "region_id": 13,
      "name": "Витвица",
      "county": "",
      "municipality": "Долинский район",
      "latitude": 48.98939,
      "longitude": 23.8452
    },
    {
      "id": 1263,
      "region_id": 13,
      "name": "Вышков",
      "county": "",
      "municipality": "Долинский район",
      "latitude": 48.72,
      "longitude": 23.65
    },
    {
      "id": 1265,
      "region_id": 13,
      "name": "Герыня",
      "county": "",
      "municipality": "Долинский район",
      "latitude": 49.04318,
      "longitude": 23.86802
    },
    {
      "id": 1267,
      "region_id": 13,
      "name": "Гошев",
      "county": "",
      "municipality": "Долинский район",
      "latitude": 49.03482,
      "longitude": 23.8879
    },
    {
      "id": 1269,
      "region_id": 13,
      "name": "Диброва",
      "county": "",
      "municipality": "Долинский район",
      "latitude": 49.00984,
      "longitude": 23.98028
    },
    {
      "id": 298,
      "region_id": 13,
      "name": "Долина",
      "county": "",
      "municipality": "Долинский район",
      "latitude": 48.97336,
      "longitude": 24.00331
    },
    {
      "id": 1279,
      "region_id": 13,
      "name": "Кальная",
      "county": "",
      "municipality": "Долинский район",
      "latitude": 48.96339,
      "longitude": 23.81151
    },
    {
      "id": 1281,
      "region_id": 13,
      "name": "Княжолука",
      "county": "",
      "municipality": "Долинский район",
      "latitude": 48.99802,
      "longitude": 23.90336
    },
    {
      "id": 1283,
      "region_id": 13,
      "name": "Крапивник",
      "county": "",
      "municipality": "Долинский район",
      "latitude": 48.93623,
      "longitude": 23.85024
    },
    {
      "id": 1285,
      "region_id": 13,
      "name": "Липа",
      "county": "",
      "municipality": "Долинский район",
      "latitude": 48.94778,
      "longitude": 23.71485
    },
    {
      "id": 1287,
      "region_id": 13,
      "name": "Лолин",
      "county": "",
      "municipality": "Долинский район",
      "latitude": 48.87584,
      "longitude": 23.94309
    },
    {
      "id": 1289,
      "region_id": 13,
      "name": "Лужки",
      "county": "",
      "municipality": "Долинский район",
      "latitude": 48.9647,
      "longitude": 23.6953
    },
    {
      "id": 1291,
      "region_id": 13,
      "name": "Максимовка",
      "county": "",
      "municipality": "Долинский район",
      "latitude": 48.88638,
      "longitude": 23.93155
    },
    {
      "id": 1293,
      "region_id": 13,
      "name": "Малая Турья",
      "county": "",
      "municipality": "Долинский район",
      "latitude": 48.95643,
      "longitude": 23.96495
    },
    {
      "id": 242,
      "region_id": 5,
      "name": "Новый Роздол",
      "county": "",
      "municipality": "Львовская область",
      "latitude": 49.47,
      "longitude": 24.13
    },
    {
      "id": 1297,
      "region_id": 13,
      "name": "Надиев",
      "county": "",
      "municipality": "Долинский район",
      "latitude": 48.9967,
      "longitude": 24.07914
    },
    {
      "id": 1299,
      "region_id": 13,
      "name": "Новый Мизунь",
      "county": "",
      "municipality": "Долинский район",
      "latitude": 48.89146,
      "longitude": 23.83545
    },
    {
      "id": 1301,
      "region_id": 13,
      "name": "Новичка",
      "county": "",
      "municipality": "Долинский район",
      "latitude": 48.98446,
      "longitude": 24.01961
    },
    {
      "id": 1303,
      "region_id": 13,
      "name": "Новоселица",
      "county": "",
      "municipality": "Долинский район",
      "latitude": 48.38,
      "longitude": 25.26
    },
    {
      "id": 1305,
      "region_id": 13,
      "name": "Новошин",
      "county": "",
      "municipality": "Долинский район",
      "latitude": 48.9,
      "longitude": 23.9
    },
    {
      "id": 1307,
      "region_id": 13,
      "name": "Оболонье",
      "county": "",
      "municipality": "Долинский район",
      "latitude": 48.94923,
      "longitude": 24.02792
    },
    {
      "id": 1309,
      "region_id": 13,
      "name": "Подлески",
      "county": "",
      "municipality": "Долинский район",
      "latitude": 48.8558,
      "longitude": 23.92513
    },
    {
      "id": 1311,
      "region_id": 13,
      "name": "Пацикив",
      "county": "",
      "municipality": "Долинский район",
      "latitude": 48.9152,
      "longitude": 23.92483
    },
    {
      "id": 1313,
      "region_id": 13,
      "name": "Пшеничники",
      "county": "",
      "municipality": "Долинский район",
      "latitude": 48.86985,
      "longitude": 24.87906
    },
    {
      "id": 1315,
      "region_id": 13,
      "name": "Раков",
      "county": "",
      "municipality": "Долинский район",
      "latitude": 48.99493,
      "longitude": 24.11131
    },
    {
      "id": 1317,
      "region_id": 13,
      "name": "Рахиня",
      "county": "",
      "municipality": "Долинский район",
      "latitude": 49,
      "longitude": 24.03
    },
    {
      "id": 1319,
      "region_id": 13,
      "name": "Росточки",
      "county": "",
      "municipality": "Долинский район",
      "latitude": 48.98,
      "longitude": 23.8
    },
    {
      "id": 1321,
      "region_id": 13,
      "name": "Сенечев",
      "county": "",
      "municipality": "Долинский район",
      "latitude": 48.74994,
      "longitude": 23.59939
    },
    {
      "id": 1323,
      "region_id": 13,
      "name": "Слобода-Болеховская",
      "county": "",
      "municipality": "Долинский район",
      "latitude": 48.97648,
      "longitude": 23.73927
    },
    {
      "id": 1325,
      "region_id": 13,
      "name": "Слобода-Долинская",
      "county": "",
      "municipality": "Долинский район",
      "latitude": 49.0301,
      "longitude": 24.02485
    },
    {
      "id": 1327,
      "region_id": 13,
      "name": "Солуков",
      "county": "",
      "municipality": "Долинский район",
      "latitude": 49.04032,
      "longitude": 23.96024
    },
    {
      "id": 1329,
      "region_id": 13,
      "name": "Станковцы",
      "county": "",
      "municipality": "Долинский район",
      "latitude": 48.99788,
      "longitude": 23.80027
    },
    {
      "id": 1331,
      "region_id": 13,
      "name": "Старый Мизунь",
      "county": "",
      "municipality": "Долинский район",
      "latitude": 48.92335,
      "longitude": 23.87859
    },
    {
      "id": 1333,
      "region_id": 13,
      "name": "Тростянец",
      "county": "",
      "municipality": "Долинский район",
      "latitude": 49.06466,
      "longitude": 24.01375
    },
    {
      "id": 1335,
      "region_id": 13,
      "name": "Тяпче",
      "county": "",
      "municipality": "Долинский район",
      "latitude": 49.01897,
      "longitude": 23.90529
    },
    {
      "id": 263,
      "region_id": 5,
      "name": "Хыров",
      "county": "",
      "municipality": "Львовская область",
      "latitude": 49.53,
      "longitude": 22.85
    },
    {
      "id": 1339,
      "region_id": 13,
      "name": "Шевченково",
      "county": "",
      "municipality": "Долинский район",
      "latitude": 48.52884,
      "longitude": 25.40774
    },
    {
      "id": 265,
      "region_id": 25,
      "name": "Украинка",
      "county": "",
      "municipality": "Киевская область",
      "latitude": 50.15288,
      "longitude": 30.74202
    },
    {
      "id": 1343,
      "region_id": 13,
      "name": "Якубов",
      "county": "",
      "municipality": "Долинский район",
      "latitude": 49.05828,
      "longitude": 23.96371
    },
    {
      "id": 1345,
      "region_id": 13,
      "name": "Иванкова",
      "county": "",
      "municipality": "Калушский район",
      "latitude": 49.11511,
      "longitude": 24.31156
    },
    {
      "id": 1347,
      "region_id": 13,
      "name": "Бабин-Заречный",
      "county": "",
      "municipality": "Калушский район",
      "latitude": 49.04595,
      "longitude": 24.51192
    },
    {
      "id": 1349,
      "region_id": 13,
      "name": "Бережница",
      "county": "",
      "municipality": "Калушский район",
      "latitude": 48.20037,
      "longitude": 24.84373
    },
    {
      "id": 270,
      "region_id": 14,
      "name": "Березне",
      "county": "",
      "municipality": "Ровенская область",
      "latitude": 51.001,
      "longitude": 26.749
    },
    {
      "id": 1353,
      "region_id": 13,
      "name": "Болохов",
      "county": "",
      "municipality": "Калушский район",
      "latitude": 49.09832,
      "longitude": 24.19439
    },
    {
      "id": 1355,
      "region_id": 13,
      "name": "Вестовая",
      "county": "",
      "municipality": "Калушский район",
      "latitude": 49.02701,
      "longitude": 24.47107
    },
    {
      "id": 1357,
      "region_id": 13,
      "name": "Верхняя",
      "county": "",
      "municipality": "Калушский район",
      "latitude": 49.09958,
      "longitude": 24.29101
    },
    {
      "id": 1359,
      "region_id": 13,
      "name": "Вилки",
      "county": "",
      "municipality": "Калушский район",
      "latitude": 49.13099,
      "longitude": 24.30054
    },
    {
      "id": 1361,
      "region_id": 13,
      "name": "Войнилов",
      "county": "",
      "municipality": "Калушский район",
      "latitude": 49.12419,
      "longitude": 24.49233
    },
    {
      "id": 1369,
      "region_id": 13,
      "name": "Горный",
      "county": "",
      "municipality": "Калушский район",
      "latitude": 48.808,
      "longitude": 24.538
    },
    {
      "id": 1371,
      "region_id": 13,
      "name": "Голынь",
      "county": "",
      "municipality": "Калушский район",
      "latitude": 49.01,
      "longitude": 24.25
    },
    {
      "id": 1373,
      "region_id": 13,
      "name": "Грабовка",
      "county": "",
      "municipality": "Калушский район",
      "latitude": 48.9,
      "longitude": 24.38
    },
    {
      "id": 1375,
      "region_id": 13,
      "name": "Гуменов",
      "county": "",
      "municipality": "Калушский район",
      "latitude": 49.11835,
      "longitude": 24.35704
    },
    {
      "id": 1377,
      "region_id": 13,
      "name": "Диброва",
      "county": "",
      "municipality": "Калушский район",
      "latitude": 49.00984,
      "longitude": 23.98028
    },
    {
      "id": 1379,
      "region_id": 13,
      "name": "Добровляны",
      "county": "",
      "municipality": "Калушский район",
      "latitude": 48.98951,
      "longitude": 24.35177
    },
    {
      "id": 1381,
      "region_id": 13,
      "name": "Долгое-Калушское",
      "county": "",
      "municipality": "Калушский район",
      "latitude": 48.99007,
      "longitude": 24.30143
    },
    {
      "id": 1383,
      "region_id": 13,
      "name": "Долгий Войнилов",
      "county": "",
      "municipality": "Калушский район",
      "latitude": 49.15572,
      "longitude": 24.36997
    },
    {
      "id": 1385,
      "region_id": 13,
      "name": "Должка",
      "county": "",
      "municipality": "Калушский район",
      "latitude": 49.17452,
      "longitude": 24.48959
    },
    {
      "id": 1387,
      "region_id": 13,
      "name": "Довпотов",
      "county": "",
      "municipality": "Калушский район",
      "latitude": 49.09337,
      "longitude": 24.43843
    },
    {
      "id": 1389,
      "region_id": 13,
      "name": "Дубовица",
      "county": "",
      "municipality": "Калушский район",
      "latitude": 49.16045,
      "longitude": 24.4745
    },
    {
      "id": 1391,
      "region_id": 13,
      "name": "Завий",
      "county": "",
      "municipality": "Калушский район",
      "latitude": 48.95193,
      "longitude": 24.42974
    },
    {
      "id": 1393,
      "region_id": 13,
      "name": "Завадка",
      "county": "",
      "municipality": "Калушский район",
      "latitude": 49.1,
      "longitude": 24.25
    },
    {
      "id": 1395,
      "region_id": 13,
      "name": "Збора",
      "county": "",
      "municipality": "Калушский район",
      "latitude": 49.11637,
      "longitude": 24.26385
    },
    {
      "id": 1397,
      "region_id": 13,
      "name": "Зеленый Яр",
      "county": "",
      "municipality": "Калушский район",
      "latitude": 48.94357,
      "longitude": 24.31194
    },
    {
      "id": 1399,
      "region_id": 13,
      "name": "Кадобна",
      "county": "",
      "municipality": "Калушский район",
      "latitude": 49.03739,
      "longitude": 24.21533
    },
    {
      "id": 76,
      "region_id": 13,
      "name": "Калуш",
      "county": "",
      "municipality": "Калушский район",
      "latitude": 49.04462,
      "longitude": 24.35833
    },
    {
      "id": 1429,
      "region_id": 13,
      "name": "Копанки",
      "county": "",
      "municipality": "Калушский район",
      "latitude": 49.08795,
      "longitude": 24.39089
    },
    {
      "id": 1431,
      "region_id": 13,
      "name": "Крапивник",
      "county": "",
      "municipality": "Калушский район",
      "latitude": 48.93623,
      "longitude": 23.85024
    },
    {
      "id": 1433,
      "region_id": 13,
      "name": "Кудлатовка",
      "county": "",
      "municipality": "Калушский район",
      "latitude": 49.07454,
      "longitude": 24.50416
    },
    {
      "id": 1435,
      "region_id": 13,
      "name": "Кулинка",
      "county": "",
      "municipality": "Калушский район",
      "latitude": 49.14425,
      "longitude": 24.25313
    },
    {
      "id": 1437,
      "region_id": 13,
      "name": "Лука",
      "county": "",
      "municipality": "Калушский район",
      "latitude": 48.78462,
      "longitude": 25.27549
    },
    {
      "id": 1439,
      "region_id": 13,
      "name": "Мыслов",
      "county": "",
      "municipality": "Калушский район",
      "latitude": 49.00566,
      "longitude": 24.50035
    },
    {
      "id": 299,
      "region_id": 11,
      "name": "Зборов",
      "county": "",
      "municipality": "Тернопольская область",
      "latitude": 49.66244,
      "longitude": 25.14176
    },
    {
      "id": 1443,
      "region_id": 13,
      "name": "Мошковцы",
      "county": "",
      "municipality": "Калушский район",
      "latitude": 49.19022,
      "longitude": 24.55109
    },
    {
      "id": 1445,
      "region_id": 13,
      "name": "Неговцы",
      "county": "",
      "municipality": "Калушский район",
      "latitude": 49.1302,
      "longitude": 24.37002
    },
    {
      "id": 1447,
      "region_id": 13,
      "name": "Новица",
      "county": "",
      "municipality": "Калушский район",
      "latitude": 48.96127,
      "longitude": 24.33445
    },
    {
      "id": 1449,
      "region_id": 13,
      "name": "Подмихайлье",
      "county": "",
      "municipality": "Калушский район",
      "latitude": 48.99781,
      "longitude": 24.41028
    },
    {
      "id": 1451,
      "region_id": 13,
      "name": "Пийло",
      "county": "",
      "municipality": "Калушский район",
      "latitude": 49.00499,
      "longitude": 24.30656
    },
    {
      "id": 1453,
      "region_id": 13,
      "name": "Павловка",
      "county": "",
      "municipality": "Калушский район",
      "latitude": 48.98867,
      "longitude": 24.64644
    },
    {
      "id": 1455,
      "region_id": 13,
      "name": "Перевозец",
      "county": "",
      "municipality": "Калушский район",
      "latitude": 49.08,
      "longitude": 24.55
    },
    {
      "id": 1457,
      "region_id": 13,
      "name": "Перекосы",
      "county": "",
      "municipality": "Калушский район",
      "latitude": 49.15463,
      "longitude": 24.39879
    },
    {
      "id": 1459,
      "region_id": 13,
      "name": "Репеинка",
      "county": "",
      "municipality": "Калушский район",
      "latitude": 48.99393,
      "longitude": 24.48105
    },
    {
      "id": 1461,
      "region_id": 13,
      "name": "Средний Бабин",
      "county": "",
      "municipality": "Калушский район",
      "latitude": 49.06183,
      "longitude": 24.50099
    },
    {
      "id": 1463,
      "region_id": 13,
      "name": "Средний Угринов",
      "county": "",
      "municipality": "Калушский район",
      "latitude": 48.92445,
      "longitude": 24.34951
    },
    {
      "id": 1465,
      "region_id": 13,
      "name": "Средняя",
      "county": "",
      "municipality": "Калушский район",
      "latitude": 49.14715,
      "longitude": 24.51562
    },
    {
      "id": 1467,
      "region_id": 13,
      "name": "Сивка-Войнилов",
      "county": "",
      "municipality": "Калушский район",
      "latitude": 49.09937,
      "longitude": 24.37494
    },
    {
      "id": 1469,
      "region_id": 13,
      "name": "Сивка-Калушская",
      "county": "",
      "municipality": "Калушский район",
      "latitude": 49.09937,
      "longitude": 24.37494
    },
    {
      "id": 1471,
      "region_id": 13,
      "name": "Слободка",
      "county": "",
      "municipality": "Калушский район",
      "latitude": 49.08359,
      "longitude": 24.49972
    },
    {
      "id": 1473,
      "region_id": 13,
      "name": "Станковая",
      "county": "",
      "municipality": "Калушский район",
      "latitude": 48.79711,
      "longitude": 24.76433
    },
    {
      "id": 1475,
      "region_id": 13,
      "name": "Старый Угринов",
      "county": "",
      "municipality": "Калушский район",
      "latitude": 48.94737,
      "longitude": 24.37258
    },
    {
      "id": 1477,
      "region_id": 13,
      "name": "Степановка",
      "county": "",
      "municipality": "Калушский район",
      "latitude": 49.07442,
      "longitude": 24.2596
    },
    {
      "id": 1479,
      "region_id": 13,
      "name": "Студинка",
      "county": "",
      "municipality": "Калушский район",
      "latitude": 49.0451,
      "longitude": 24.46218
    },
    {
      "id": 1481,
      "region_id": 13,
      "name": "Томашовцы",
      "county": "",
      "municipality": "Калушский район",
      "latitude": 49.14295,
      "longitude": 24.43283
    },
    {
      "id": 1483,
      "region_id": 13,
      "name": "Тужилов",
      "county": "",
      "municipality": "Калушский район",
      "latitude": 48.98458,
      "longitude": 24.2541
    },
    {
      "id": 1485,
      "region_id": 13,
      "name": "Цветовая",
      "county": "",
      "municipality": "Калушский район",
      "latitude": 49.21,
      "longitude": 24.46
    },
    {
      "id": 1487,
      "region_id": 13,
      "name": "Яворовка",
      "county": "",
      "municipality": "Калушский район",
      "latitude": 48.96603,
      "longitude": 24.43844
    },
    {
      "id": 1489,
      "region_id": 13,
      "name": "Ивановцы",
      "county": "",
      "municipality": "Коломыйский район",
      "latitude": 48.5785,
      "longitude": 24.84471
    },
    {
      "id": 1491,
      "region_id": 13,
      "name": "Бабянка",
      "county": "",
      "municipality": "Коломыйский район",
      "latitude": 48.72551,
      "longitude": 24.81443
    },
    {
      "id": 1493,
      "region_id": 13,
      "name": "Беремяны",
      "county": "",
      "municipality": "Коломыйский район",
      "latitude": 48.59659,
      "longitude": 25.29848
    },
    {
      "id": 1495,
      "region_id": 13,
      "name": "Богородичин",
      "county": "",
      "municipality": "Коломыйский район",
      "latitude": 48.72108,
      "longitude": 25.02509
    },
    {
      "id": 327,
      "region_id": 13,
      "name": "Надворная",
      "county": "",
      "municipality": "Ивано-Франковская область",
      "latitude": 48.63,
      "longitude": 24.58
    },
    {
      "id": 1499,
      "region_id": 13,
      "name": "Большая Каменка",
      "county": "",
      "municipality": "Коломыйский район",
      "latitude": 48.64828,
      "longitude": 25.09702
    },
    {
      "id": 1501,
      "region_id": 13,
      "name": "Великий Ключов",
      "county": "",
      "municipality": "Коломыйский район",
      "latitude": 48.46417,
      "longitude": 24.93658
    },
    {
      "id": 1503,
      "region_id": 13,
      "name": "Верхний Вербиж",
      "county": "",
      "municipality": "Коломыйский район",
      "latitude": 48.49734,
      "longitude": 24.98884
    },
    {
      "id": 1505,
      "region_id": 13,
      "name": "Виноград",
      "county": "",
      "municipality": "Коломыйский район",
      "latitude": 48.61794,
      "longitude": 25.27293
    },
    {
      "id": 1507,
      "region_id": 13,
      "name": "Ворона",
      "county": "",
      "municipality": "Коломыйский район",
      "latitude": 48.76365,
      "longitude": 24.8054
    },
    {
      "id": 333,
      "region_id": 13,
      "name": "Коломыя",
      "county": "",
      "municipality": "Ивано-Франковская область",
      "latitude": 48.53,
      "longitude": 25.04
    },
    {
      "id": 1511,
      "region_id": 13,
      "name": "Ганнов",
      "county": "",
      "municipality": "Коломыйский район",
      "latitude": 48.46702,
      "longitude": 25.19663
    },
    {
      "id": 1513,
      "region_id": 13,
      "name": "Гвоздец",
      "county": "",
      "municipality": "Коломыйский район",
      "latitude": 48.57468,
      "longitude": 25.28082
    },
    {
      "id": 336,
      "region_id": 2,
      "name": "Краснопартизанск",
      "county": "",
      "municipality": "Луганская область",
      "latitude": 48.08,
      "longitude": 39.79
    },
    {
      "id": 1517,
      "region_id": 13,
      "name": "Годы-Доброводка",
      "county": "",
      "municipality": "Коломыйский район",
      "latitude": 48.6,
      "longitude": 25.06
    },
    {
      "id": 1519,
      "region_id": 13,
      "name": "Голосков",
      "county": "",
      "municipality": "Коломыйский район",
      "latitude": 48.69996,
      "longitude": 24.87338
    },
    {
      "id": 1521,
      "region_id": 13,
      "name": "Грабич",
      "county": "",
      "municipality": "Коломыйский район",
      "latitude": 48.73836,
      "longitude": 24.8923
    },
    {
      "id": 1523,
      "region_id": 13,
      "name": "Грушев",
      "county": "",
      "municipality": "Коломыйский район",
      "latitude": 48.48143,
      "longitude": 25.08615
    },
    {
      "id": 1525,
      "region_id": 13,
      "name": "Дебеславцы",
      "county": "",
      "municipality": "Коломыйский район",
      "latitude": 48.46569,
      "longitude": 25.17096
    },
    {
      "id": 342,
      "region_id": 22,
      "name": "Устилуг",
      "county": "",
      "municipality": "Волынская область",
      "latitude": 50.8609,
      "longitude": 24.15
    },
    {
      "id": 1529,
      "region_id": 13,
      "name": "Жукотин",
      "county": "",
      "municipality": "Коломыйский район",
      "latitude": 48.67786,
      "longitude": 25.06743
    },
    {
      "id": 1531,
      "region_id": 13,
      "name": "Загойполь",
      "county": "",
      "municipality": "Коломыйский район",
      "latitude": 48.5449,
      "longitude": 25.21417
    },
    {
      "id": 1533,
      "region_id": 13,
      "name": "Закровцы",
      "county": "",
      "municipality": "Коломыйский район",
      "latitude": 48.7511,
      "longitude": 24.90955
    },
    {
      "id": 1535,
      "region_id": 13,
      "name": "Залучье",
      "county": "",
      "municipality": "Коломыйский район",
      "latitude": 48.48364,
      "longitude": 25.16249
    },
    {
      "id": 1537,
      "region_id": 13,
      "name": "Замулинцы",
      "county": "",
      "municipality": "Коломыйский район",
      "latitude": 48.48712,
      "longitude": 25.21038
    },
    {
      "id": 1539,
      "region_id": 13,
      "name": "Котлов",
      "county": "",
      "municipality": "Коломыйский район",
      "latitude": 48.65294,
      "longitude": 25.00779
    },
    {
      "id": 1541,
      "region_id": 13,
      "name": "Кийданч",
      "county": "",
      "municipality": "Коломыйский район",
      "latitude": 48.79711,
      "longitude": 24.76433
    },
    {
      "id": 1543,
      "region_id": 13,
      "name": "Княждвор",
      "county": "",
      "municipality": "Коломыйский район",
      "latitude": 48.55578,
      "longitude": 24.91449
    },
    {
      "id": 1545,
      "region_id": 13,
      "name": "Кобылец",
      "county": "",
      "municipality": "Коломыйский район",
      "latitude": 48.53586,
      "longitude": 25.23857
    },
    {
      "id": 1547,
      "region_id": 13,
      "name": "Ковалевка",
      "county": "",
      "municipality": "Коломыйский район",
      "latitude": 48.43477,
      "longitude": 25.00623
    },
    {
      "id": 353,
      "region_id": 13,
      "name": "Снятын",
      "county": "",
      "municipality": "Ивано-Франковская область",
      "latitude": 48.45,
      "longitude": 25.57
    },
    {
      "id": 1575,
      "region_id": 13,
      "name": "Корнич",
      "county": "",
      "municipality": "Коломыйский район",
      "latitude": 48.51,
      "longitude": 25.11
    },
    {
      "id": 1577,
      "region_id": 13,
      "name": "Королевка",
      "county": "",
      "municipality": "Коломыйский район",
      "latitude": 48.52456,
      "longitude": 25.11838
    },
    {
      "id": 1579,
      "region_id": 13,
      "name": "Коршев",
      "county": "",
      "municipality": "Коломыйский район",
      "latitude": 48.66748,
      "longitude": 25.02573
    },
    {
      "id": 1581,
      "region_id": 13,
      "name": "Кринички",
      "county": "",
      "municipality": "Коломыйский район",
      "latitude": 48.52032,
      "longitude": 25.23658
    },
    {
      "id": 1583,
      "region_id": 13,
      "name": "Крапивище",
      "county": "",
      "municipality": "Коломыйский район",
      "latitude": 48.43761,
      "longitude": 25.09143
    },
    {
      "id": 1585,
      "region_id": 13,
      "name": "Лески",
      "county": "",
      "municipality": "Коломыйский район",
      "latitude": 48.65086,
      "longitude": 25.03985
    },
    {
      "id": 1587,
      "region_id": 13,
      "name": "Лесная Слободка",
      "county": "",
      "municipality": "Коломыйский район",
      "latitude": 48.61347,
      "longitude": 24.97069
    },
    {
      "id": 1589,
      "region_id": 13,
      "name": "Лесной Хлебичин",
      "county": "",
      "municipality": "Коломыйский район",
      "latitude": 48.6925,
      "longitude": 24.92472
    },
    {
      "id": 1591,
      "region_id": 13,
      "name": "Липники",
      "county": "",
      "municipality": "Коломыйский район",
      "latitude": 48.45524,
      "longitude": 25.15577
    },
    {
      "id": 1593,
      "region_id": 13,
      "name": "Малая Каменка",
      "county": "",
      "municipality": "Коломыйский район",
      "latitude": 48.5918,
      "longitude": 25.01826
    },
    {
      "id": 364,
      "region_id": 25,
      "name": "Яготин",
      "county": "",
      "municipality": "Киевская область",
      "latitude": 50.2563,
      "longitude": 31.77996
    },
    {
      "id": 1597,
      "region_id": 13,
      "name": "Малый Ключев",
      "county": "",
      "municipality": "Коломыйский район",
      "latitude": 48.47197,
      "longitude": 24.9143
    },
    {
      "id": 1599,
      "region_id": 13,
      "name": "Марковка",
      "county": "",
      "municipality": "Коломыйский район",
      "latitude": 48.5,
      "longitude": 24.86
    },
    {
      "id": 1601,
      "region_id": 13,
      "name": "Матеевцы",
      "county": "",
      "municipality": "Коломыйский район",
      "latitude": 48.49849,
      "longitude": 25.16167
    },
    {
      "id": 1603,
      "region_id": 13,
      "name": "Михалков",
      "county": "",
      "municipality": "Коломыйский район",
      "latitude": 48.693,
      "longitude": 25.03379
    },
    {
      "id": 1605,
      "region_id": 13,
      "name": "Мишин",
      "county": "",
      "municipality": "Коломыйский район",
      "latitude": 48.45431,
      "longitude": 24.99075
    },
    {
      "id": 1607,
      "region_id": 13,
      "name": "Молодилов",
      "county": "",
      "municipality": "Коломыйский район",
      "latitude": 48.68,
      "longitude": 24.85
    },
    {
      "id": 1609,
      "region_id": 13,
      "name": "Молодятин",
      "county": "",
      "municipality": "Коломыйский район",
      "latitude": 48.52664,
      "longitude": 24.83861
    },
    {
      "id": 1611,
      "region_id": 13,
      "name": "Назирная",
      "county": "",
      "municipality": "Коломыйский район",
      "latitude": 48.52718,
      "longitude": 25.21011
    },
    {
      "id": 373,
      "region_id": 4,
      "name": "Майорск",
      "county": "",
      "municipality": "Донецкая область",
      "latitude": 48.39977,
      "longitude": 38.04728
    },
    {
      "id": 1615,
      "region_id": 13,
      "name": "Нижняя Велесница",
      "county": "",
      "municipality": "Коломыйский район",
      "latitude": 48.72351,
      "longitude": 24.75316
    },
    {
      "id": 1617,
      "region_id": 13,
      "name": "Остапковцы",
      "county": "",
      "municipality": "Коломыйский район",
      "latitude": 48.59351,
      "longitude": 25.26888
    },
    {
      "id": 1619,
      "region_id": 13,
      "name": "Отыния",
      "county": "",
      "municipality": "Коломыйский район",
      "latitude": 48.73599,
      "longitude": 24.85608
    },
    {
      "id": 1623,
      "region_id": 13,
      "name": "Подгайчики",
      "county": "",
      "municipality": "Коломыйский район",
      "latitude": 48.56053,
      "longitude": 25.17579
    },
    {
      "id": 1625,
      "region_id": 13,
      "name": "Перерыв",
      "county": "",
      "municipality": "Коломыйский район",
      "latitude": 48.50809,
      "longitude": 25.12617
    },
    {
      "id": 379,
      "region_id": 5,
      "name": "Жидачев",
      "county": "",
      "municipality": "Львовская область",
      "latitude": 49.38,
      "longitude": 24.14
    },
    {
      "id": 1631,
      "region_id": 13,
      "name": "Пилипы",
      "county": "",
      "municipality": "Коломыйский район",
      "latitude": 48.46817,
      "longitude": 25.12027
    },
    {
      "id": 1633,
      "region_id": 13,
      "name": "Пищаче",
      "county": "",
      "municipality": "Коломыйский район",
      "latitude": 48.61226,
      "longitude": 25.18862
    },
    {
      "id": 1635,
      "region_id": 13,
      "name": "Пядики",
      "county": "",
      "municipality": "Коломыйский район",
      "latitude": 48.5625,
      "longitude": 25.07561
    },
    {
      "id": 1637,
      "region_id": 13,
      "name": "Раковчик",
      "county": "",
      "municipality": "Коломыйский район",
      "latitude": 48.59754,
      "longitude": 24.94726
    },
    {
      "id": 1639,
      "region_id": 13,
      "name": "Рунгуры",
      "county": "",
      "municipality": "Коломыйский район",
      "latitude": 48.48018,
      "longitude": 24.86707
    },
    {
      "id": 1641,
      "region_id": 13,
      "name": "Седлище",
      "county": "",
      "municipality": "Коломыйский район",
      "latitude": 48.66598,
      "longitude": 24.8586
    },
    {
      "id": 1643,
      "region_id": 13,
      "name": "Семаковцы",
      "county": "",
      "municipality": "Коломыйский район",
      "latitude": 48.47976,
      "longitude": 25.20765
    },
    {
      "id": 1645,
      "region_id": 13,
      "name": "Скоповка",
      "county": "",
      "municipality": "Коломыйский район",
      "latitude": 48.68474,
      "longitude": 24.89312
    },
    {
      "id": 1647,
      "region_id": 13,
      "name": "Слобода",
      "county": "",
      "municipality": "Коломыйский район",
      "latitude": 49.26194,
      "longitude": 24.68612
    },
    {
      "id": 1649,
      "region_id": 13,
      "name": "Сопов",
      "county": "",
      "municipality": "Коломыйский район",
      "latitude": 48.52128,
      "longitude": 24.97744
    },
    {
      "id": 1651,
      "region_id": 13,
      "name": "Спас",
      "county": "",
      "municipality": "Коломыйский район",
      "latitude": 48.44741,
      "longitude": 25.0435
    },
    {
      "id": 1653,
      "region_id": 13,
      "name": "Станиславовка",
      "county": "",
      "municipality": "Коломыйский район",
      "latitude": 48.64804,
      "longitude": 24.90759
    },
    {
      "id": 1655,
      "region_id": 13,
      "name": "Старый Гвоздец",
      "county": "",
      "municipality": "Коломыйский район",
      "latitude": 48.57972,
      "longitude": 25.25363
    },
    {
      "id": 1657,
      "region_id": 13,
      "name": "Струпков",
      "county": "",
      "municipality": "Коломыйский район",
      "latitude": 48.7097,
      "longitude": 24.82515
    },
    {
      "id": 1659,
      "region_id": 13,
      "name": "Студлов",
      "county": "",
      "municipality": "Коломыйский район",
      "latitude": 48.61077,
      "longitude": 25.15206
    },
    {
      "id": 1661,
      "region_id": 13,
      "name": "Товмачик",
      "county": "",
      "municipality": "Коломыйский район",
      "latitude": 48.58525,
      "longitude": 24.88489
    },
    {
      "id": 1663,
      "region_id": 13,
      "name": "Торговица",
      "county": "",
      "municipality": "Коломыйский район",
      "latitude": 48.59,
      "longitude": 25.43
    },
    {
      "id": 397,
      "region_id": 13,
      "name": "Болехов",
      "county": "",
      "municipality": "Ивано-Франковская область",
      "latitude": 49.07,
      "longitude": 23.85489
    },
    {
      "id": 1667,
      "region_id": 13,
      "name": "Турка",
      "county": "",
      "municipality": "Коломыйский район",
      "latitude": 48.59102,
      "longitude": 25.13656
    },
    {
      "id": 399,
      "region_id": 16,
      "name": "Щёлкино",
      "county": "",
      "municipality": "Крым",
      "latitude": 45.42519,
      "longitude": 35.81704
    },
    {
      "id": 1671,
      "region_id": 13,
      "name": "Фатовец",
      "county": "",
      "municipality": "Коломыйский район",
      "latitude": 48.62702,
      "longitude": 25.11952
    },
    {
      "id": 1673,
      "region_id": 13,
      "name": "Хоросная",
      "county": "",
      "municipality": "Коломыйский район",
      "latitude": 48.65365,
      "longitude": 24.83966
    },
    {
      "id": 1675,
      "region_id": 13,
      "name": "Ценява",
      "county": "",
      "municipality": "Коломыйский район",
      "latitude": 48.55116,
      "longitude": 25.12439
    },
    {
      "id": 1677,
      "region_id": 13,
      "name": "Черемхов",
      "county": "",
      "municipality": "Коломыйский район",
      "latitude": 48.68,
      "longitude": 24.96
    },
    {
      "id": 1679,
      "region_id": 13,
      "name": "Чехова",
      "county": "",
      "municipality": "Коломыйский район",
      "latitude": 48.59706,
      "longitude": 25.27652
    },
    {
      "id": 1681,
      "region_id": 13,
      "name": "Шепаровцы",
      "county": "",
      "municipality": "Коломыйский район",
      "latitude": 48.5617,
      "longitude": 24.95817
    },
    {
      "id": 1683,
      "region_id": 13,
      "name": "Ясинки",
      "county": "",
      "municipality": "Коломыйский район",
      "latitude": 48.57802,
      "longitude": 25.11789
    },
    {
      "id": 1685,
      "region_id": 13,
      "name": "Акрешоры",
      "county": "",
      "municipality": "Косовский район",
      "latitude": 48.36171,
      "longitude": 24.8219
    },
    {
      "id": 1687,
      "region_id": 13,
      "name": "Бабий",
      "county": "",
      "municipality": "Косовский район",
      "latitude": 48.2789,
      "longitude": 25.037
    },
    {
      "id": 1689,
      "region_id": 13,
      "name": "Баня-Березов",
      "county": "",
      "municipality": "Косовский район",
      "latitude": 48.42107,
      "longitude": 24.76563
    },
    {
      "id": 1693,
      "region_id": 13,
      "name": "Брустуров",
      "county": "",
      "municipality": "Косовский район",
      "latitude": 48.3,
      "longitude": 24.88
    },
    {
      "id": 1695,
      "region_id": 13,
      "name": "Великий Рожин",
      "county": "",
      "municipality": "Косовский район",
      "latitude": 48.21544,
      "longitude": 25.03628
    },
    {
      "id": 1697,
      "region_id": 13,
      "name": "Вербовец",
      "county": "",
      "municipality": "Косовский район",
      "latitude": 48.34214,
      "longitude": 25.13037
    },
    {
      "id": 1699,
      "region_id": 13,
      "name": "Верхний Березов",
      "county": "",
      "municipality": "Косовский район",
      "latitude": 48.79711,
      "longitude": 24.76433
    },
    {
      "id": 1701,
      "region_id": 13,
      "name": "Горное",
      "county": "",
      "municipality": "Косовский район",
      "latitude": 48.50039,
      "longitude": 24.54019
    },
    {
      "id": 1703,
      "region_id": 13,
      "name": "Город",
      "county": "",
      "municipality": "Косовский район",
      "latitude": 48.30182,
      "longitude": 25.03538
    },
    {
      "id": 1705,
      "region_id": 13,
      "name": "Гуцуловка",
      "county": "",
      "municipality": "Косовский район",
      "latitude": 48.42529,
      "longitude": 25.1158
    },
    {
      "id": 1707,
      "region_id": 13,
      "name": "Кобаки",
      "county": "",
      "municipality": "Косовский район",
      "latitude": 48.32,
      "longitude": 25.22
    },
    {
      "id": 1709,
      "region_id": 13,
      "name": "Коросты",
      "county": "",
      "municipality": "Косовский район",
      "latitude": 48.41901,
      "longitude": 25.17131
    },
    {
      "id": 1711,
      "region_id": 13,
      "name": "Косов",
      "county": "",
      "municipality": "Косовский район",
      "latitude": 48.31,
      "longitude": 25.09
    },
    {
      "id": 1721,
      "region_id": 13,
      "name": "Космач",
      "county": "",
      "municipality": "Косовский район",
      "latitude": 48.33439,
      "longitude": 24.81958
    },
    {
      "id": 1723,
      "region_id": 13,
      "name": "Кривоброды",
      "county": "",
      "municipality": "Косовский район",
      "latitude": 48.40089,
      "longitude": 25.15204
    },
    {
      "id": 1725,
      "region_id": 13,
      "name": "Куты",
      "county": "",
      "municipality": "Косовский район",
      "latitude": 48.26297,
      "longitude": 25.17383
    },
    {
      "id": 1729,
      "region_id": 13,
      "name": "Люча",
      "county": "",
      "municipality": "Косовский район",
      "latitude": 48.40113,
      "longitude": 24.89869
    },
    {
      "id": 1731,
      "region_id": 13,
      "name": "Лючки",
      "county": "",
      "municipality": "Косовский район",
      "latitude": 48.43251,
      "longitude": 24.74468
    },
    {
      "id": 1733,
      "region_id": 13,
      "name": "Малый Рожин",
      "county": "",
      "municipality": "Косовский район",
      "latitude": 48.26044,
      "longitude": 25.07652
    },
    {
      "id": 1735,
      "region_id": 13,
      "name": "Микитинцы",
      "county": "",
      "municipality": "Косовский район",
      "latitude": 48.90183,
      "longitude": 24.75116
    },
    {
      "id": 1737,
      "region_id": 13,
      "name": "Нижний Березов",
      "county": "",
      "municipality": "Косовский район",
      "latitude": 48.40474,
      "longitude": 24.85992
    },
    {
      "id": 1739,
      "region_id": 13,
      "name": "Пистынь",
      "county": "",
      "municipality": "Косовский район",
      "latitude": 48.35895,
      "longitude": 25.0237
    },
    {
      "id": 429,
      "region_id": 2,
      "name": "Горское",
      "county": "",
      "municipality": "Луганская область",
      "latitude": 48.752,
      "longitude": 38.501
    },
    {
      "id": 1743,
      "region_id": 13,
      "name": "Река",
      "county": "",
      "municipality": "Косовский район",
      "latitude": 48.27896,
      "longitude": 24.93076
    },
    {
      "id": 1745,
      "region_id": 13,
      "name": "Рыбное",
      "county": "",
      "municipality": "Косовский район",
      "latitude": 48.95403,
      "longitude": 24.61011
    },
    {
      "id": 1747,
      "region_id": 13,
      "name": "Рожнов",
      "county": "",
      "municipality": "Косовский район",
      "latitude": 48.36675,
      "longitude": 25.22987
    },
    {
      "id": 1749,
      "region_id": 13,
      "name": "Розтоки",
      "county": "",
      "municipality": "Косовский район",
      "latitude": 48.18817,
      "longitude": 25.11371
    },
    {
      "id": 1751,
      "region_id": 13,
      "name": "Средний Березов",
      "county": "",
      "municipality": "Косовский район",
      "latitude": 48.43222,
      "longitude": 24.80969
    },
    {
      "id": 1753,
      "region_id": 13,
      "name": "Слободка",
      "county": "",
      "municipality": "Косовский район",
      "latitude": 48.29383,
      "longitude": 25.21785
    },
    {
      "id": 1755,
      "region_id": 13,
      "name": "Смодна",
      "county": "",
      "municipality": "Косовский район",
      "latitude": 48.31826,
      "longitude": 25.14163
    },
    {
      "id": 1757,
      "region_id": 13,
      "name": "Снидавка",
      "county": "",
      "municipality": "Косовский район",
      "latitude": 48.23623,
      "longitude": 24.86039
    },
    {
      "id": 1759,
      "region_id": 13,
      "name": "Соколовка",
      "county": "",
      "municipality": "Косовский район",
      "latitude": 48.29356,
      "longitude": 25.00233
    },
    {
      "id": 1761,
      "region_id": 13,
      "name": "Старые Куты",
      "county": "",
      "municipality": "Косовский район",
      "latitude": 48.28247,
      "longitude": 25.15849
    },
    {
      "id": 1763,
      "region_id": 13,
      "name": "Старый Косов",
      "county": "",
      "municipality": "Косовский район",
      "latitude": 48.31875,
      "longitude": 25.11674
    },
    {
      "id": 1765,
      "region_id": 13,
      "name": "Стопчатов",
      "county": "",
      "municipality": "Косовский район",
      "latitude": 48.41177,
      "longitude": 24.96773
    },
    {
      "id": 1767,
      "region_id": 13,
      "name": "Текучее",
      "county": "",
      "municipality": "Косовский район",
      "latitude": 48.38418,
      "longitude": 24.80496
    },
    {
      "id": 1769,
      "region_id": 13,
      "name": "Трач",
      "county": "",
      "municipality": "Косовский район",
      "latitude": 48.43066,
      "longitude": 25.14418
    },
    {
      "id": 1771,
      "region_id": 13,
      "name": "Тюдов",
      "county": "",
      "municipality": "Косовский район",
      "latitude": 48.25,
      "longitude": 25.11
    },
    {
      "id": 1773,
      "region_id": 13,
      "name": "Уторопы",
      "county": "",
      "municipality": "Косовский район",
      "latitude": 48.38191,
      "longitude": 24.98194
    },
    {
      "id": 1775,
      "region_id": 13,
      "name": "Химчин",
      "county": "",
      "municipality": "Косовский район",
      "latitude": 48.38458,
      "longitude": 25.15356
    },
    {
      "id": 1777,
      "region_id": 13,
      "name": "Чергановка",
      "county": "",
      "municipality": "Косовский район",
      "latitude": 48.3,
      "longitude": 25.15
    },
    {
      "id": 1779,
      "region_id": 13,
      "name": "Шепот",
      "county": "",
      "municipality": "Косовский район",
      "latitude": 48.2636,
      "longitude": 24.85654
    },
    {
      "id": 1781,
      "region_id": 13,
      "name": "Шешоры",
      "county": "",
      "municipality": "Косовский район",
      "latitude": 48.33,
      "longitude": 24.98
    },
    {
      "id": 1785,
      "region_id": 13,
      "name": "Яблунов",
      "county": "",
      "municipality": "Косовский район",
      "latitude": 48.40187,
      "longitude": 24.94157
    },
    {
      "id": 1787,
      "region_id": 13,
      "name": "Яворов",
      "county": "",
      "municipality": "Косовский район",
      "latitude": 48.24016,
      "longitude": 24.97537
    },
    {
      "id": 1789,
      "region_id": 13,
      "name": "Белые Ославы",
      "county": "",
      "municipality": "Надворнянский район",
      "latitude": 48.49,
      "longitude": 24.7
    },
    {
      "id": 453,
      "region_id": 12,
      "name": "Драбов",
      "county": "",
      "municipality": "Черкасская область",
      "latitude": 49.95885,
      "longitude": 32.13793
    },
    {
      "id": 1793,
      "region_id": 13,
      "name": "Быстрица",
      "county": "",
      "municipality": "Надворнянский район",
      "latitude": 48.46252,
      "longitude": 24.24833
    },
    {
      "id": 1795,
      "region_id": 13,
      "name": "Бытков",
      "county": "",
      "municipality": "Надворнянский район",
      "latitude": 48.63,
      "longitude": 24.45
    },
    {
      "id": 1797,
      "region_id": 13,
      "name": "Буковое",
      "county": "",
      "municipality": "Надворнянский район",
      "latitude": 48.60079,
      "longitude": 24.36582
    },
    {
      "id": 1799,
      "region_id": 13,
      "name": "Верхний Майдан",
      "county": "",
      "municipality": "Надворнянский район",
      "latitude": 48.61397,
      "longitude": 24.66633
    },
    {
      "id": 1801,
      "region_id": 13,
      "name": "Вышковцы",
      "county": "",
      "municipality": "Надворнянский район",
      "latitude": 48.79711,
      "longitude": 24.76433
    },
    {
      "id": 1803,
      "region_id": 13,
      "name": "Волосов",
      "county": "",
      "municipality": "Надворнянский район",
      "latitude": 48.72836,
      "longitude": 24.67926
    },
    {
      "id": 1805,
      "region_id": 13,
      "name": "Гавриловка",
      "county": "",
      "municipality": "Надворнянский район",
      "latitude": 48.68158,
      "longitude": 24.72056
    },
    {
      "id": 1807,
      "region_id": 13,
      "name": "Гвоздь",
      "county": "",
      "municipality": "Надворнянский район",
      "latitude": 48.68039,
      "longitude": 24.54403
    },
    {
      "id": 1809,
      "region_id": 13,
      "name": "Глинки",
      "county": "",
      "municipality": "Надворнянский район",
      "latitude": 48.65631,
      "longitude": 24.76694
    },
    {
      "id": 541,
      "region_id": 13,
      "name": "Делятин",
      "county": "",
      "municipality": "Надворнянский район",
      "latitude": 48.53288,
      "longitude": 24.62507
    },
    {
      "id": 1815,
      "region_id": 13,
      "name": "Добротов",
      "county": "",
      "municipality": "Надворнянский район",
      "latitude": 48.54375,
      "longitude": 24.69411
    },
    {
      "id": 1817,
      "region_id": 13,
      "name": "Заречье",
      "county": "",
      "municipality": "Надворнянский район",
      "latitude": 48.51776,
      "longitude": 24.64477
    },
    {
      "id": 1819,
      "region_id": 13,
      "name": "Згары",
      "county": "",
      "municipality": "Надворнянский район",
      "latitude": 48.44073,
      "longitude": 24.20355
    },
    {
      "id": 1821,
      "region_id": 13,
      "name": "Зеленая",
      "county": "",
      "municipality": "Надворнянский район",
      "latitude": 48.53031,
      "longitude": 24.3602
    },
    {
      "id": 1823,
      "region_id": 13,
      "name": "Каменное",
      "county": "",
      "municipality": "Надворнянский район",
      "latitude": 48.34245,
      "longitude": 24.57537
    },
    {
      "id": 1825,
      "region_id": 13,
      "name": "Клымпуши",
      "county": "",
      "municipality": "Надворнянский район",
      "latitude": 48.79711,
      "longitude": 24.76433
    },
    {
      "id": 1827,
      "region_id": 13,
      "name": "Красная",
      "county": "",
      "municipality": "Надворнянский район",
      "latitude": 48.56889,
      "longitude": 24.70055
    },
    {
      "id": 1829,
      "region_id": 13,
      "name": "Кубаевка",
      "county": "",
      "municipality": "Надворнянский район",
      "latitude": 48.60971,
      "longitude": 24.7987
    },
    {
      "id": 1831,
      "region_id": 13,
      "name": "Лесная Велесница",
      "county": "",
      "municipality": "Надворнянский район",
      "latitude": 48.63485,
      "longitude": 24.66243
    },
    {
      "id": 1833,
      "region_id": 13,
      "name": "Лесная Тарновица",
      "county": "",
      "municipality": "Надворнянский район",
      "latitude": 48.67856,
      "longitude": 24.62259
    },
    {
      "id": 543,
      "region_id": 13,
      "name": "Ланчин",
      "county": "",
      "municipality": "Надворнянский район",
      "latitude": 48.55037,
      "longitude": 24.74667
    },
    {
      "id": 1837,
      "region_id": 13,
      "name": "Лоева",
      "county": "",
      "municipality": "Надворнянский район",
      "latitude": 48.56875,
      "longitude": 24.60766
    },
    {
      "id": 1839,
      "region_id": 13,
      "name": "Максимец",
      "county": "",
      "municipality": "Надворнянский район",
      "latitude": 48.52022,
      "longitude": 24.26311
    },
    {
      "id": 1841,
      "region_id": 13,
      "name": "Мирное",
      "county": "",
      "municipality": "Надворнянский район",
      "latitude": 48.66869,
      "longitude": 24.5839
    },
    {
      "id": 1843,
      "region_id": 13,
      "name": "Мельницы",
      "county": "",
      "municipality": "Надворнянский район",
      "latitude": 48.68521,
      "longitude": 24.57275
    },
    {
      "id": 1845,
      "region_id": 13,
      "name": "Мозолевка",
      "county": "",
      "municipality": "Надворнянский район",
      "latitude": 48.60824,
      "longitude": 24.54506
    },
    {
      "id": 1847,
      "region_id": 13,
      "name": "Молодков",
      "county": "",
      "municipality": "Надворнянский район",
      "latitude": 48.65795,
      "longitude": 24.49598
    },
    {
      "id": 481,
      "region_id": 9,
      "name": "Раздельная",
      "county": "",
      "municipality": "Одесская область",
      "latitude": 46.8494,
      "longitude": 30.07557
    },
    {
      "id": 1869,
      "region_id": 13,
      "name": "Назавизов",
      "county": "",
      "municipality": "Надворнянский район",
      "latitude": 48.67072,
      "longitude": 24.59844
    },
    {
      "id": 1871,
      "region_id": 13,
      "name": "Парище",
      "county": "",
      "municipality": "Надворнянский район",
      "latitude": 48.65957,
      "longitude": 24.70013
    },
    {
      "id": 1873,
      "region_id": 13,
      "name": "Пасечная",
      "county": "",
      "municipality": "Надворнянский район",
      "latitude": 48.56,
      "longitude": 24.41
    },
    {
      "id": 1875,
      "region_id": 13,
      "name": "Переросль",
      "county": "",
      "municipality": "Надворнянский район",
      "latitude": 48.70069,
      "longitude": 24.6367
    },
    {
      "id": 1877,
      "region_id": 13,
      "name": "Пнив",
      "county": "",
      "municipality": "Надворнянский район",
      "latitude": 48.61447,
      "longitude": 24.52342
    },
    {
      "id": 1879,
      "region_id": 13,
      "name": "Постолята",
      "county": "",
      "municipality": "Надворнянский район",
      "latitude": 48.79711,
      "longitude": 24.76433
    },
    {
      "id": 1881,
      "region_id": 13,
      "name": "Причил",
      "county": "",
      "municipality": "Надворнянский район",
      "latitude": 48.44123,
      "longitude": 24.22798
    },
    {
      "id": 1883,
      "region_id": 13,
      "name": "Саджавка",
      "county": "",
      "municipality": "Надворнянский район",
      "latitude": 48.56894,
      "longitude": 24.7935
    },
    {
      "id": 1885,
      "region_id": 13,
      "name": "Средний Майдан",
      "county": "",
      "municipality": "Надворнянский район",
      "latitude": 48.808,
      "longitude": 24.538
    },
    {
      "id": 1887,
      "region_id": 13,
      "name": "Соколовица",
      "county": "",
      "municipality": "Надворнянский район",
      "latitude": 48.58769,
      "longitude": 24.40633
    },
    {
      "id": 1889,
      "region_id": 13,
      "name": "Стримба",
      "county": "",
      "municipality": "Надворнянский район",
      "latitude": 48.59814,
      "longitude": 24.57788
    },
    {
      "id": 1891,
      "region_id": 13,
      "name": "Тысменичаны",
      "county": "",
      "municipality": "Надворнянский район",
      "latitude": 48.77,
      "longitude": 24.66
    },
    {
      "id": 1893,
      "region_id": 13,
      "name": "Фитьков",
      "county": "",
      "municipality": "Надворнянский район",
      "latitude": 48.7,
      "longitude": 24.6
    },
    {
      "id": 1895,
      "region_id": 13,
      "name": "Цуцилов",
      "county": "",
      "municipality": "Надворнянский район",
      "latitude": 48.73341,
      "longitude": 24.63947
    },
    {
      "id": 1897,
      "region_id": 13,
      "name": "Черник",
      "county": "",
      "municipality": "Надворнянский район",
      "latitude": 48.49258,
      "longitude": 24.35091
    },
    {
      "id": 1899,
      "region_id": 13,
      "name": "Черные Ославы",
      "county": "",
      "municipality": "Надворнянский район",
      "latitude": 48.45849,
      "longitude": 24.74144
    },
    {
      "id": 1901,
      "region_id": 13,
      "name": "Черный Поток",
      "county": "",
      "municipality": "Надворнянский район",
      "latitude": 48.49942,
      "longitude": 24.73099
    },
    {
      "id": 1903,
      "region_id": 13,
      "name": "Бабухов",
      "county": "",
      "municipality": "Рогатинский район",
      "latitude": 49.36,
      "longitude": 24.61
    },
    {
      "id": 1905,
      "region_id": 13,
      "name": "Беньковцы",
      "county": "",
      "municipality": "Рогатинский район",
      "latitude": 49.44534,
      "longitude": 24.44756
    },
    {
      "id": 1907,
      "region_id": 13,
      "name": "Березовка",
      "county": "",
      "municipality": "Рогатинский район",
      "latitude": 48.82655,
      "longitude": 24.69396
    },
    {
      "id": 1909,
      "region_id": 13,
      "name": "Бойко",
      "county": "",
      "municipality": "Рогатинский район",
      "latitude": 49.31055,
      "longitude": 24.77765
    },
    {
      "id": 1911,
      "region_id": 13,
      "name": "Букачевская Слобода",
      "county": "",
      "municipality": "Рогатинский район",
      "latitude": 49.24903,
      "longitude": 24.48125
    },
    {
      "id": 1913,
      "region_id": 13,
      "name": "Букачевцы",
      "county": "",
      "municipality": "Рогатинский район",
      "latitude": 49.25,
      "longitude": 24.5
    },
    {
      "id": 1919,
      "region_id": 13,
      "name": "Ольховая",
      "county": "",
      "municipality": "Рогатинский район",
      "latitude": 49.32954,
      "longitude": 24.48259
    },
    {
      "id": 1921,
      "region_id": 13,
      "name": "Васючин",
      "county": "",
      "municipality": "Рогатинский район",
      "latitude": 49.35273,
      "longitude": 24.46642
    },
    {
      "id": 507,
      "region_id": 4,
      "name": "Старобешево",
      "county": "",
      "municipality": "Донецкая область",
      "latitude": 47.75,
      "longitude": 38.033
    },
    {
      "id": 1925,
      "region_id": 13,
      "name": "Верхняя Липица",
      "county": "",
      "municipality": "Рогатинский район",
      "latitude": 49.353,
      "longitude": 24.78388
    },
    {
      "id": 1927,
      "region_id": 13,
      "name": "Выгода",
      "county": "",
      "municipality": "Рогатинский район",
      "latitude": 48.13155,
      "longitude": 24.96858
    },
    {
      "id": 1929,
      "region_id": 13,
      "name": "Выспа",
      "county": "",
      "municipality": "Рогатинский район",
      "latitude": 49.49893,
      "longitude": 24.44957
    },
    {
      "id": 1931,
      "region_id": 13,
      "name": "Витань",
      "county": "",
      "municipality": "Рогатинский район",
      "latitude": 49.26904,
      "longitude": 24.55967
    },
    {
      "id": 1933,
      "region_id": 13,
      "name": "Вишнев",
      "county": "",
      "municipality": "Рогатинский район",
      "latitude": 49.26966,
      "longitude": 24.39544
    },
    {
      "id": 513,
      "region_id": 6,
      "name": "Емильчино",
      "county": "",
      "municipality": "Житомирская область",
      "latitude": 50.872,
      "longitude": 27.808
    },
    {
      "id": 1937,
      "region_id": 13,
      "name": "Воскресинцы",
      "county": "",
      "municipality": "Рогатинский район",
      "latitude": 49.35891,
      "longitude": 24.42388
    },
    {
      "id": 1939,
      "region_id": 13,
      "name": "Гоноратовка",
      "county": "",
      "municipality": "Рогатинский район",
      "latitude": 49.40978,
      "longitude": 24.76894
    },
    {
      "id": 1941,
      "region_id": 13,
      "name": "Городиская",
      "county": "",
      "municipality": "Рогатинский район",
      "latitude": 49.37915,
      "longitude": 24.82021
    },
    {
      "id": 1943,
      "region_id": 13,
      "name": "Григоров",
      "county": "",
      "municipality": "Рогатинский район",
      "latitude": 49.33178,
      "longitude": 24.42466
    },
    {
      "id": 1945,
      "region_id": 13,
      "name": "Григоровская Слобода",
      "county": "",
      "municipality": "Рогатинский район",
      "latitude": 49.34642,
      "longitude": 24.39847
    },
    {
      "id": 519,
      "region_id": 10,
      "name": "Буштына",
      "county": "",
      "municipality": "Закарпатская область",
      "latitude": 48.054,
      "longitude": 23.477
    },
    {
      "id": 1949,
      "region_id": 13,
      "name": "Данильче",
      "county": "",
      "municipality": "Рогатинский район",
      "latitude": 49.36778,
      "longitude": 24.70713
    },
    {
      "id": 1951,
      "region_id": 13,
      "name": "Дегова",
      "county": "",
      "municipality": "Рогатинский район",
      "latitude": 49.42599,
      "longitude": 24.48561
    },
    {
      "id": 1953,
      "region_id": 13,
      "name": "Дички",
      "county": "",
      "municipality": "Рогатинский район",
      "latitude": 49.47474,
      "longitude": 24.50907
    },
    {
      "id": 1955,
      "region_id": 13,
      "name": "Добринев",
      "county": "",
      "municipality": "Рогатинский район",
      "latitude": 49.45,
      "longitude": 24.71
    },
    {
      "id": 1957,
      "region_id": 13,
      "name": "Долиняны",
      "county": "",
      "municipality": "Рогатинский район",
      "latitude": 49.42472,
      "longitude": 24.40712
    },
    {
      "id": 525,
      "region_id": 10,
      "name": "Дубовое",
      "county": "",
      "municipality": "Закарпатская область",
      "latitude": 48.173,
      "longitude": 23.889
    },
    {
      "id": 1961,
      "region_id": 13,
      "name": "Журов",
      "county": "",
      "municipality": "Рогатинский район",
      "latitude": 49.30817,
      "longitude": 24.44579
    },
    {
      "id": 1963,
      "region_id": 13,
      "name": "Журавеньки",
      "county": "",
      "municipality": "Рогатинский район",
      "latitude": 49.24136,
      "longitude": 24.37164
    },
    {
      "id": 1965,
      "region_id": 13,
      "name": "Загорье",
      "county": "",
      "municipality": "Рогатинский район",
      "latitude": 49.37934,
      "longitude": 24.47699
    },
    {
      "id": 1967,
      "region_id": 13,
      "name": "Заланов",
      "county": "",
      "municipality": "Рогатинский район",
      "latitude": 49.46411,
      "longitude": 24.54124
    },
    {
      "id": 1969,
      "region_id": 13,
      "name": "Заливки",
      "county": "",
      "municipality": "Рогатинский район",
      "latitude": 49.32086,
      "longitude": 24.69684
    },
    {
      "id": 531,
      "region_id": 10,
      "name": "Солотвина",
      "county": "",
      "municipality": "Закарпатская область",
      "latitude": 47.96,
      "longitude": 23.867
    },
    {
      "id": 1973,
      "region_id": 13,
      "name": "Зеленов",
      "county": "",
      "municipality": "Рогатинский район",
      "latitude": 49.37076,
      "longitude": 24.80372
    },
    {
      "id": 1975,
      "region_id": 13,
      "name": "Сруб",
      "county": "",
      "municipality": "Рогатинский район",
      "latitude": 49.25345,
      "longitude": 24.39873
    },
    {
      "id": 1977,
      "region_id": 13,
      "name": "Осиповка",
      "county": "",
      "municipality": "Рогатинский район",
      "latitude": 49.32137,
      "longitude": 24.53081
    },
    {
      "id": 1979,
      "region_id": 13,
      "name": "Каменка",
      "county": "",
      "municipality": "Рогатинский район",
      "latitude": 49.5415,
      "longitude": 24.4888
    },
    {
      "id": 1981,
      "region_id": 13,
      "name": "Клещивна",
      "county": "",
      "municipality": "Рогатинский район",
      "latitude": 49.48,
      "longitude": 24.6
    },
    {
      "id": 1983,
      "region_id": 13,
      "name": "Княгиничи",
      "county": "",
      "municipality": "Рогатинский район",
      "latitude": 49.38031,
      "longitude": 24.46071
    },
    {
      "id": 1985,
      "region_id": 13,
      "name": "Козари",
      "county": "",
      "municipality": "Рогатинский район",
      "latitude": 49.24641,
      "longitude": 24.45104
    },
    {
      "id": 539,
      "region_id": 13,
      "name": "Богородчаны",
      "county": "",
      "municipality": "Ивано-Франковская область",
      "latitude": 48.808,
      "longitude": 24.538
    },
    {
      "id": 1989,
      "region_id": 13,
      "name": "Конюшки",
      "county": "",
      "municipality": "Рогатинский район",
      "latitude": 49.31,
      "longitude": 24.6
    },
    {
      "id": 1991,
      "region_id": 13,
      "name": "Корчунок",
      "county": "",
      "municipality": "Рогатинский район",
      "latitude": 49.42574,
      "longitude": 24.76117
    },
    {
      "id": 1993,
      "region_id": 13,
      "name": "Кривня",
      "county": "",
      "municipality": "Рогатинский район",
      "latitude": 49.50693,
      "longitude": 24.58517
    },
    {
      "id": 1995,
      "region_id": 13,
      "name": "Кутцы",
      "county": "",
      "municipality": "Рогатинский район",
      "latitude": 49.41028,
      "longitude": 24.63892
    },
    {
      "id": 1997,
      "region_id": 13,
      "name": "Лесная",
      "county": "",
      "municipality": "Рогатинский район",
      "latitude": 49.42592,
      "longitude": 24.62651
    },
    {
      "id": 545,
      "region_id": 13,
      "name": "Перегинское",
      "county": "",
      "municipality": "Ивано-Франковская область",
      "latitude": 48.81,
      "longitude": 24.19
    },
    {
      "id": 2001,
      "region_id": 13,
      "name": "Лопушня",
      "county": "",
      "municipality": "Рогатинский район",
      "latitude": 49.3807,
      "longitude": 24.772
    },
    {
      "id": 2003,
      "region_id": 13,
      "name": "Луковец-Вишневский",
      "county": "",
      "municipality": "Рогатинский район",
      "latitude": 49.29259,
      "longitude": 24.36517
    },
    {
      "id": 2007,
      "region_id": 13,
      "name": "Луковище",
      "county": "",
      "municipality": "Рогатинский район",
      "latitude": 49.45856,
      "longitude": 24.61367
    },
    {
      "id": 549,
      "region_id": 7,
      "name": "Новая Прага",
      "county": "",
      "municipality": "Кировоградская область",
      "latitude": 48.55814,
      "longitude": 32.90167
    },
    {
      "id": 2011,
      "region_id": 13,
      "name": "Любша",
      "county": "",
      "municipality": "Рогатинский район",
      "latitude": 49.49641,
      "longitude": 24.43972
    },
    {
      "id": 2013,
      "region_id": 13,
      "name": "Малый Заланов",
      "county": "",
      "municipality": "Рогатинский район",
      "latitude": 49.4545,
      "longitude": 24.55389
    },
    {
      "id": 2015,
      "region_id": 13,
      "name": "Малиновка",
      "county": "",
      "municipality": "Рогатинский район",
      "latitude": 49.34933,
      "longitude": 24.8236
    },
    {
      "id": 2017,
      "region_id": 13,
      "name": "Межигаи",
      "county": "",
      "municipality": "Рогатинский район",
      "latitude": 49.36592,
      "longitude": 24.52311
    },
    {
      "id": 2019,
      "region_id": 13,
      "name": "Мельна",
      "county": "",
      "municipality": "Рогатинский район",
      "latitude": 49.52742,
      "longitude": 24.4672
    },
    {
      "id": 2021,
      "region_id": 13,
      "name": "Нижняя Липица",
      "county": "",
      "municipality": "Рогатинский район",
      "latitude": 49.32122,
      "longitude": 24.793
    },
    {
      "id": 2023,
      "region_id": 13,
      "name": "Обельница",
      "county": "",
      "municipality": "Рогатинский район",
      "latitude": 49.31851,
      "longitude": 24.62693
    },
    {
      "id": 2025,
      "region_id": 13,
      "name": "Подборье",
      "county": "",
      "municipality": "Рогатинский район",
      "latitude": 49.47937,
      "longitude": 24.4434
    },
    {
      "id": 2027,
      "region_id": 13,
      "name": "Подвинье",
      "county": "",
      "municipality": "Рогатинский район",
      "latitude": 49.42286,
      "longitude": 24.65492
    },
    {
      "id": 2029,
      "region_id": 13,
      "name": "Подгородье",
      "county": "",
      "municipality": "Рогатинский район",
      "latitude": 49.44221,
      "longitude": 24.59636
    },
    {
      "id": 2031,
      "region_id": 13,
      "name": "Подкамень",
      "county": "",
      "municipality": "Рогатинский район",
      "latitude": 49.44869,
      "longitude": 24.48074
    },
    {
      "id": 2033,
      "region_id": 13,
      "name": "Подмихайловцы",
      "county": "",
      "municipality": "Рогатинский район",
      "latitude": 49.33218,
      "longitude": 24.45287
    },
    {
      "id": 2035,
      "region_id": 13,
      "name": "Переновка",
      "county": "",
      "municipality": "Рогатинский район",
      "latitude": 49.4325,
      "longitude": 24.61537
    },
    {
      "id": 2037,
      "region_id": 13,
      "name": "Пилиповка",
      "county": "",
      "municipality": "Рогатинский район",
      "latitude": 49.49122,
      "longitude": 24.72609
    },
    {
      "id": 2039,
      "region_id": 13,
      "name": "Погребовка",
      "county": "",
      "municipality": "Рогатинский район",
      "latitude": 49.49698,
      "longitude": 24.67094
    },
    {
      "id": 2041,
      "region_id": 13,
      "name": "Помонята",
      "county": "",
      "municipality": "Рогатинский район",
      "latitude": 49.39644,
      "longitude": 24.43693
    },
    {
      "id": 2043,
      "region_id": 13,
      "name": "Посвирж",
      "county": "",
      "municipality": "Рогатинский район",
      "latitude": 49.26194,
      "longitude": 24.47174
    },
    {
      "id": 2045,
      "region_id": 13,
      "name": "Поток",
      "county": "",
      "municipality": "Рогатинский район",
      "latitude": 49.41714,
      "longitude": 24.58175
    },
    {
      "id": 2047,
      "region_id": 13,
      "name": "Приозерное",
      "county": "",
      "municipality": "Рогатинский район",
      "latitude": 49.41561,
      "longitude": 24.47174
    },
    {
      "id": 569,
      "region_id": 18,
      "name": "Глыбокая",
      "county": "",
      "municipality": "Черновицкая область",
      "latitude": 48.085,
      "longitude": 25.932
    },
    {
      "id": 2051,
      "region_id": 13,
      "name": "Путятинцы",
      "county": "",
      "municipality": "Рогатинский район",
      "latitude": 49.37634,
      "longitude": 24.63971
    },
    {
      "id": 89,
      "region_id": 13,
      "name": "Рогатин",
      "county": "",
      "municipality": "Рогатинский район",
      "latitude": 49.40994,
      "longitude": 24.6106
    },
    {
      "id": 2061,
      "region_id": 13,
      "name": "Руда",
      "county": "",
      "municipality": "Рогатинский район",
      "latitude": 49.45982,
      "longitude": 24.5782
    },
    {
      "id": 2063,
      "region_id": 13,
      "name": "Сарники",
      "county": "",
      "municipality": "Рогатинский район",
      "latitude": 49.31,
      "longitude": 24.7416
    },
    {
      "id": 2065,
      "region_id": 13,
      "name": "Рассвет",
      "county": "",
      "municipality": "Рогатинский район",
      "latitude": 49.29704,
      "longitude": 24.79841
    },
    {
      "id": 2067,
      "region_id": 13,
      "name": "Стефановка",
      "county": "",
      "municipality": "Рогатинский район",
      "latitude": 49.29143,
      "longitude": 24.77272
    },
    {
      "id": 2069,
      "region_id": 13,
      "name": "Стратин",
      "county": "",
      "municipality": "Рогатинский район",
      "latitude": 49.47117,
      "longitude": 24.70417
    },
    {
      "id": 2071,
      "region_id": 13,
      "name": "Уезд",
      "county": "",
      "municipality": "Рогатинский район",
      "latitude": 49.33,
      "longitude": 24.71
    },
    {
      "id": 2073,
      "region_id": 13,
      "name": "Фрага",
      "county": "",
      "municipality": "Рогатинский район",
      "latitude": 49.47189,
      "longitude": 24.43759
    },
    {
      "id": 579,
      "region_id": 20,
      "name": "Виньковцы",
      "county": "",
      "municipality": "Хмельницкая область",
      "latitude": 49.033,
      "longitude": 27.234
    },
    {
      "id": 2077,
      "region_id": 13,
      "name": "Чернов",
      "county": "",
      "municipality": "Рогатинский район",
      "latitude": 48.34245,
      "longitude": 24.57537
    },
    {
      "id": 2079,
      "region_id": 13,
      "name": "Черче",
      "county": "",
      "municipality": "Рогатинский район",
      "latitude": 49.43,
      "longitude": 24.55
    },
    {
      "id": 2081,
      "region_id": 13,
      "name": "Чесники",
      "county": "",
      "municipality": "Рогатинский район",
      "latitude": 49.39007,
      "longitude": 24.7279
    },
    {
      "id": 2083,
      "region_id": 13,
      "name": "Юнашков",
      "county": "",
      "municipality": "Рогатинский район",
      "latitude": 49.30743,
      "longitude": 24.66392
    },
    {
      "id": 2085,
      "region_id": 13,
      "name": "Явче",
      "county": "",
      "municipality": "Рогатинский район",
      "latitude": 49.35,
      "longitude": 24.51
    },
    {
      "id": 2087,
      "region_id": 13,
      "name": "Яглуш",
      "county": "",
      "municipality": "Рогатинский район",
      "latitude": 49.4826,
      "longitude": 24.48618
    },
    {
      "id": 2089,
      "region_id": 13,
      "name": "Ивановка",
      "county": "",
      "municipality": "Рожнятовский район",
      "latitude": 48.87825,
      "longitude": 24.11337
    },
    {
      "id": 2091,
      "region_id": 13,
      "name": "Илемня",
      "county": "",
      "municipality": "Рожнятовский район",
      "latitude": 48.85395,
      "longitude": 23.97591
    },
    {
      "id": 2093,
      "region_id": 13,
      "name": "Бабское",
      "county": "",
      "municipality": "Рожнятовский район",
      "latitude": 48.72199,
      "longitude": 24.15386
    },
    {
      "id": 2095,
      "region_id": 13,
      "name": "Берлоги",
      "county": "",
      "municipality": "Рожнятовский район",
      "latitude": 48.96,
      "longitude": 24.25
    },
    {
      "id": 2097,
      "region_id": 13,
      "name": "Брошнев",
      "county": "",
      "municipality": "Рожнятовский район",
      "latitude": 48.98064,
      "longitude": 24.19976
    },
    {
      "id": 591,
      "region_id": 3,
      "name": "Великая Александровка",
      "county": "",
      "municipality": "Херсонская область",
      "latitude": 47.32337,
      "longitude": 33.30067
    },
    {
      "id": 2105,
      "region_id": 13,
      "name": "Ольховка",
      "county": "",
      "municipality": "Рожнятовский район",
      "latitude": 48.85145,
      "longitude": 24.18596
    },
    {
      "id": 593,
      "region_id": 3,
      "name": "Великая Лепетиха",
      "county": "",
      "municipality": "Херсонская область",
      "latitude": 47.16923,
      "longitude": 33.94057
    },
    {
      "id": 2109,
      "region_id": 13,
      "name": "Верхний Струтинь",
      "county": "",
      "municipality": "Рожнятовский район",
      "latitude": 48.92344,
      "longitude": 24.07206
    },
    {
      "id": 2111,
      "region_id": 13,
      "name": "Грабов",
      "county": "",
      "municipality": "Рожнятовский район",
      "latitude": 48.90757,
      "longitude": 23.99887
    },
    {
      "id": 2113,
      "region_id": 13,
      "name": "Гриньков",
      "county": "",
      "municipality": "Рожнятовский район",
      "latitude": 48.69476,
      "longitude": 24.11772
    },
    {
      "id": 597,
      "region_id": 3,
      "name": "Камышаны",
      "county": "",
      "municipality": "Херсонская область",
      "latitude": 46.637,
      "longitude": 32.505
    },
    {
      "id": 2117,
      "region_id": 13,
      "name": "Дубшары",
      "county": "",
      "municipality": "Рожнятовский район",
      "latitude": 48.84624,
      "longitude": 24.10129
    },
    {
      "id": 2119,
      "region_id": 13,
      "name": "Закерничное",
      "county": "",
      "municipality": "Рожнятовский район",
      "latitude": 48.76941,
      "longitude": 24.18314
    },
    {
      "id": 2121,
      "region_id": 13,
      "name": "Камень",
      "county": "",
      "municipality": "Рожнятовский район",
      "latitude": 48.808,
      "longitude": 24.538
    },
    {
      "id": 2123,
      "region_id": 13,
      "name": "Князевское",
      "county": "",
      "municipality": "Рожнятовский район",
      "latitude": 48.86602,
      "longitude": 24.14441
    },
    {
      "id": 2125,
      "region_id": 13,
      "name": "Красное",
      "county": "",
      "municipality": "Рожнятовский район",
      "latitude": 48.85,
      "longitude": 24.28
    },
    {
      "id": 2127,
      "region_id": 13,
      "name": "Креховичи",
      "county": "",
      "municipality": "Рожнятовский район",
      "latitude": 49.00205,
      "longitude": 24.15155
    },
    {
      "id": 2129,
      "region_id": 13,
      "name": "Кривая",
      "county": "",
      "municipality": "Рожнятовский район",
      "latitude": 48.92377,
      "longitude": 23.98293
    },
    {
      "id": 2131,
      "region_id": 13,
      "name": "Кузьминец",
      "county": "",
      "municipality": "Рожнятовский район",
      "latitude": 48.68115,
      "longitude": 24.05313
    },
    {
      "id": 2133,
      "region_id": 13,
      "name": "Лазы",
      "county": "",
      "municipality": "Рожнятовский район",
      "latitude": 48.71537,
      "longitude": 24.14473
    },
    {
      "id": 2135,
      "region_id": 13,
      "name": "Лецовка",
      "county": "",
      "municipality": "Рожнятовский район",
      "latitude": 48.82525,
      "longitude": 24.11177
    },
    {
      "id": 2137,
      "region_id": 13,
      "name": "Липовица",
      "county": "",
      "municipality": "Рожнятовский район",
      "latitude": 48.76,
      "longitude": 24.05
    },
    {
      "id": 2139,
      "region_id": 13,
      "name": "Ловаги",
      "county": "",
      "municipality": "Рожнятовский район",
      "latitude": 48.85552,
      "longitude": 24.22758
    },
    {
      "id": 2141,
      "region_id": 13,
      "name": "Лопянка",
      "county": "",
      "municipality": "Рожнятовский район",
      "latitude": 48.90578,
      "longitude": 24.03721
    },
    {
      "id": 2143,
      "region_id": 13,
      "name": "Луги",
      "county": "",
      "municipality": "Рожнятовский район",
      "latitude": 48.84086,
      "longitude": 24.02921
    },
    {
      "id": 2145,
      "region_id": 13,
      "name": "Небылов",
      "county": "",
      "municipality": "Рожнятовский район",
      "latitude": 48.81605,
      "longitude": 24.21912
    },
    {
      "id": 2147,
      "region_id": 13,
      "name": "Нижний Струтинь",
      "county": "",
      "municipality": "Рожнятовский район",
      "latitude": 48.93948,
      "longitude": 24.12026
    },
    {
      "id": 2149,
      "region_id": 13,
      "name": "Осмолода",
      "county": "",
      "municipality": "Рожнятовский район",
      "latitude": 48.56325,
      "longitude": 24.01289
    },
    {
      "id": 2151,
      "region_id": 13,
      "name": "Подлесье",
      "county": "",
      "municipality": "Рожнятовский район",
      "latitude": 48.90302,
      "longitude": 24.62246
    },
    {
      "id": 2153,
      "region_id": 13,
      "name": "Подсухи",
      "county": "",
      "municipality": "Рожнятовский район",
      "latitude": 48.86,
      "longitude": 24.06325
    },
    {
      "id": 617,
      "region_id": 11,
      "name": "Великая Березовица",
      "county": "",
      "municipality": "Тернопольская область",
      "latitude": 49.496,
      "longitude": 25.609
    },
    {
      "id": 2161,
      "region_id": 13,
      "name": "Петранка",
      "county": "",
      "municipality": "Рожнятовский район",
      "latitude": 48.90038,
      "longitude": 24.29583
    },
    {
      "id": 2163,
      "region_id": 13,
      "name": "Погар",
      "county": "",
      "municipality": "Рожнятовский район",
      "latitude": 48.74784,
      "longitude": 24.21717
    },
    {
      "id": 2165,
      "region_id": 13,
      "name": "Погорелец",
      "county": "",
      "municipality": "Рожнятовский район",
      "latitude": 48.87935,
      "longitude": 24.07228
    },
    {
      "id": 2167,
      "region_id": 13,
      "name": "Ровня",
      "county": "",
      "municipality": "Рожнятовский район",
      "latitude": 48.808,
      "longitude": 24.538
    },
    {
      "id": 2169,
      "region_id": 13,
      "name": "Репное",
      "county": "",
      "municipality": "Рожнятовский район",
      "latitude": 48.82792,
      "longitude": 24.14781
    },
    {
      "id": 2171,
      "region_id": 13,
      "name": "Тараща",
      "county": "",
      "municipality": "Рожнятовский район",
      "latitude": 48.93613,
      "longitude": 24.15941
    },
    {
      "id": 2181,
      "region_id": 13,
      "name": "Рошняте",
      "county": "",
      "municipality": "Рожнятовский район",
      "latitude": 48.86844,
      "longitude": 24.20558
    },
    {
      "id": 2183,
      "region_id": 13,
      "name": "Сварычев",
      "county": "",
      "municipality": "Рожнятовский район",
      "latitude": 48.96127,
      "longitude": 24.19063
    },
    {
      "id": 2185,
      "region_id": 13,
      "name": "Сливки",
      "county": "",
      "municipality": "Рожнятовский район",
      "latitude": 48.77816,
      "longitude": 24.20369
    },
    {
      "id": 2187,
      "region_id": 13,
      "name": "Слобода-Небыловская",
      "county": "",
      "municipality": "Рожнятовский район",
      "latitude": 48.82982,
      "longitude": 24.25902
    },
    {
      "id": 2189,
      "region_id": 13,
      "name": "Слобода-Ровненская",
      "county": "",
      "municipality": "Рожнятовский район",
      "latitude": 48.89299,
      "longitude": 24.21522
    },
    {
      "id": 2191,
      "region_id": 13,
      "name": "Спас",
      "county": "",
      "municipality": "Рожнятовский район",
      "latitude": 48.44741,
      "longitude": 25.0435
    },
    {
      "id": 2193,
      "region_id": 13,
      "name": "Суходол",
      "county": "",
      "municipality": "Рожнятовский район",
      "latitude": 48.79248,
      "longitude": 24.01297
    },
    {
      "id": 2195,
      "region_id": 13,
      "name": "Топольское",
      "county": "",
      "municipality": "Рожнятовский район",
      "latitude": 48.92531,
      "longitude": 24.23507
    },
    {
      "id": 2197,
      "region_id": 13,
      "name": "Туровка",
      "county": "",
      "municipality": "Рожнятовский район",
      "latitude": 48.72137,
      "longitude": 24.21942
    },
    {
      "id": 2199,
      "region_id": 13,
      "name": "Ценява",
      "county": "",
      "municipality": "Рожнятовский район",
      "latitude": 48.55116,
      "longitude": 25.12439
    },
    {
      "id": 2201,
      "region_id": 13,
      "name": "Черепина",
      "county": "",
      "municipality": "Рожнятовский район",
      "latitude": 48.73425,
      "longitude": 24.19749
    },
    {
      "id": 2203,
      "region_id": 13,
      "name": "Ясеновец",
      "county": "",
      "municipality": "Рожнятовский район",
      "latitude": 48.89015,
      "longitude": 24.11991
    },
    {
      "id": 2205,
      "region_id": 13,
      "name": "Ясень",
      "county": "",
      "municipality": "Рожнятовский район",
      "latitude": 48.7449,
      "longitude": 24.17355
    },
    {
      "id": 2207,
      "region_id": 13,
      "name": "Ильинцы",
      "county": "",
      "municipality": "Снятинский район",
      "latitude": 48.44,
      "longitude": 25.28
    },
    {
      "id": 2209,
      "region_id": 13,
      "name": "Балинцы",
      "county": "",
      "municipality": "Снятинский район",
      "latitude": 48.5545,
      "longitude": 25.28719
    },
    {
      "id": 2211,
      "region_id": 13,
      "name": "Белелуя",
      "county": "",
      "municipality": "Снятинский район",
      "latitude": 48.5,
      "longitude": 25.48
    },
    {
      "id": 2213,
      "region_id": 13,
      "name": "Борщев",
      "county": "",
      "municipality": "Снятинский район",
      "latitude": 48.47938,
      "longitude": 25.22641
    },
    {
      "id": 2215,
      "region_id": 13,
      "name": "Борщевская Турка",
      "county": "",
      "municipality": "Снятинский район",
      "latitude": 48.50487,
      "longitude": 25.24849
    },
    {
      "id": 2217,
      "region_id": 13,
      "name": "Будилов",
      "county": "",
      "municipality": "Снятинский район",
      "latitude": 48.45,
      "longitude": 25.51
    },
    {
      "id": 2219,
      "region_id": 13,
      "name": "Бучачки",
      "county": "",
      "municipality": "Снятинский район",
      "latitude": 48.53433,
      "longitude": 25.29355
    },
    {
      "id": 2221,
      "region_id": 13,
      "name": "Видинев",
      "county": "",
      "municipality": "Снятинский район",
      "latitude": 48.4494,
      "longitude": 25.44472
    },
    {
      "id": 2223,
      "region_id": 13,
      "name": "Вишневка",
      "county": "",
      "municipality": "Снятинский район",
      "latitude": 48.56369,
      "longitude": 25.37597
    },
    {
      "id": 2225,
      "region_id": 13,
      "name": "Волчковцы",
      "county": "",
      "municipality": "Снятинский район",
      "latitude": 48.47287,
      "longitude": 25.39045
    },
    {
      "id": 2227,
      "region_id": 13,
      "name": "Ганьковцы",
      "county": "",
      "municipality": "Снятинский район",
      "latitude": 48.54641,
      "longitude": 25.41816
    },
    {
      "id": 2229,
      "region_id": 13,
      "name": "Верхнее Залучье",
      "county": "",
      "municipality": "Снятинский район",
      "latitude": 48.41124,
      "longitude": 25.49337
    },
    {
      "id": 2231,
      "region_id": 13,
      "name": "Джуров",
      "county": "",
      "municipality": "Снятинский район",
      "latitude": 48.4,
      "longitude": 25.31
    },
    {
      "id": 2233,
      "region_id": 13,
      "name": "Долишнее Залучье",
      "county": "",
      "municipality": "Снятинский район",
      "latitude": 48.4045,
      "longitude": 25.52741
    },
    {
      "id": 2235,
      "region_id": 13,
      "name": "Драгасимов",
      "county": "",
      "municipality": "Снятинский район",
      "latitude": 48.40264,
      "longitude": 25.41698
    },
    {
      "id": 2237,
      "region_id": 13,
      "name": "Зибрановка",
      "county": "",
      "municipality": "Снятинский район",
      "latitude": 48.51211,
      "longitude": 25.35975
    },
    {
      "id": 2239,
      "region_id": 13,
      "name": "Заболотов",
      "county": "",
      "municipality": "Снятинский район",
      "latitude": 48.47234,
      "longitude": 25.27925
    },
    {
      "id": 2243,
      "region_id": 13,
      "name": "Завалье",
      "county": "",
      "municipality": "Снятинский район",
      "latitude": 48.38817,
      "longitude": 25.59061
    },
    {
      "id": 2245,
      "region_id": 13,
      "name": "Задубровцы",
      "county": "",
      "municipality": "Снятинский район",
      "latitude": 48.53383,
      "longitude": 25.44883
    },
    {
      "id": 2247,
      "region_id": 13,
      "name": "Запрутье",
      "county": "",
      "municipality": "Снятинский район",
      "latitude": 48.42594,
      "longitude": 25.57473
    },
    {
      "id": 2249,
      "region_id": 13,
      "name": "Келихов",
      "county": "",
      "municipality": "Снятинский район",
      "latitude": 48.49012,
      "longitude": 25.3313
    },
    {
      "id": 2251,
      "region_id": 13,
      "name": "Княже",
      "county": "",
      "municipality": "Снятинский район",
      "latitude": 48.40845,
      "longitude": 25.45447
    },
    {
      "id": 2253,
      "region_id": 13,
      "name": "Красноставцы",
      "county": "",
      "municipality": "Снятинский район",
      "latitude": 48.5316,
      "longitude": 25.48089
    },
    {
      "id": 2255,
      "region_id": 13,
      "name": "Кулачковцы",
      "county": "",
      "municipality": "Снятинский район",
      "latitude": 48.55791,
      "longitude": 25.3011
    },
    {
      "id": 2257,
      "region_id": 13,
      "name": "Любковцы",
      "county": "",
      "municipality": "Снятинский район",
      "latitude": 48.47111,
      "longitude": 25.3696
    },
    {
      "id": 2259,
      "region_id": 13,
      "name": "Новоселица",
      "county": "",
      "municipality": "Снятинский район",
      "latitude": 48.38,
      "longitude": 25.26
    },
    {
      "id": 2261,
      "region_id": 13,
      "name": "Олешков",
      "county": "",
      "municipality": "Снятинский район",
      "latitude": 48.46363,
      "longitude": 25.33904
    },
    {
      "id": 2263,
      "region_id": 13,
      "name": "Орелец",
      "county": "",
      "municipality": "Снятинский район",
      "latitude": 48.47066,
      "longitude": 25.42245
    },
    {
      "id": 2265,
      "region_id": 13,
      "name": "Подвысокое",
      "county": "",
      "municipality": "Снятинский район",
      "latitude": 48.55,
      "longitude": 25.51
    },
    {
      "id": 2267,
      "region_id": 13,
      "name": "Попельники",
      "county": "",
      "municipality": "Снятинский район",
      "latitude": 48.39072,
      "longitude": 25.35454
    },
    {
      "id": 2269,
      "region_id": 13,
      "name": "Поток",
      "county": "",
      "municipality": "Снятинский район",
      "latitude": 48.48675,
      "longitude": 25.55747
    },
    {
      "id": 2271,
      "region_id": 13,
      "name": "Прутовка",
      "county": "",
      "municipality": "Снятинский район",
      "latitude": 48.44717,
      "longitude": 25.4767
    },
    {
      "id": 2273,
      "region_id": 13,
      "name": "Рожневые Поля",
      "county": "",
      "municipality": "Снятинский район",
      "latitude": 48.52422,
      "longitude": 25.38199
    },
    {
      "id": 2275,
      "region_id": 13,
      "name": "Рудники",
      "county": "",
      "municipality": "Снятинский район",
      "latitude": 48.43261,
      "longitude": 25.33498
    },
    {
      "id": 2277,
      "region_id": 13,
      "name": "Русов",
      "county": "",
      "municipality": "Снятинский район",
      "latitude": 48.5157,
      "longitude": 25.52547
    },
    {
      "id": 2281,
      "region_id": 13,
      "name": "Чернигов",
      "county": "",
      "municipality": "Снятинский район",
      "latitude": 48.44642,
      "longitude": 25.56991
    },
    {
      "id": 2289,
      "region_id": 13,
      "name": "Стецовка",
      "county": "",
      "municipality": "Снятинский район",
      "latitude": 48.55335,
      "longitude": 25.56388
    },
    {
      "id": 2291,
      "region_id": 13,
      "name": "Стецева",
      "county": "",
      "municipality": "Снятинский район",
      "latitude": 48.52649,
      "longitude": 25.5701
    },
    {
      "id": 2293,
      "region_id": 13,
      "name": "Троица",
      "county": "",
      "municipality": "Снятинский район",
      "latitude": 48.45295,
      "longitude": 25.21408
    },
    {
      "id": 2295,
      "region_id": 13,
      "name": "Тростянец",
      "county": "",
      "municipality": "Снятинский район",
      "latitude": 49.06466,
      "longitude": 24.01375
    },
    {
      "id": 2297,
      "region_id": 13,
      "name": "Трофановка",
      "county": "",
      "municipality": "Снятинский район",
      "latitude": 48.54224,
      "longitude": 25.30535
    },
    {
      "id": 2299,
      "region_id": 13,
      "name": "Тулова",
      "county": "",
      "municipality": "Снятинский район",
      "latitude": 48.46559,
      "longitude": 25.44958
    },
    {
      "id": 2301,
      "region_id": 13,
      "name": "Тулуков",
      "county": "",
      "municipality": "Снятинский район",
      "latitude": 48.46418,
      "longitude": 25.31402
    },
    {
      "id": 2303,
      "region_id": 13,
      "name": "Тучапы",
      "county": "",
      "municipality": "Снятинский район",
      "latitude": 48.4005,
      "longitude": 25.38088
    },
    {
      "id": 2305,
      "region_id": 13,
      "name": "Устье",
      "county": "",
      "municipality": "Снятинский район",
      "latitude": 48.46853,
      "longitude": 25.48227
    },
    {
      "id": 2307,
      "region_id": 13,
      "name": "Хлебичин",
      "county": "",
      "municipality": "Снятинский район",
      "latitude": 48.47124,
      "longitude": 25.26119
    },
    {
      "id": 2309,
      "region_id": 13,
      "name": "Хомяковка",
      "county": "",
      "municipality": "Снятинский район",
      "latitude": 48.85,
      "longitude": 24.83
    },
    {
      "id": 2311,
      "region_id": 13,
      "name": "Хутор Будилов",
      "county": "",
      "municipality": "Снятинский район",
      "latitude": 48.42427,
      "longitude": 25.50589
    },
    {
      "id": 2313,
      "region_id": 13,
      "name": "Шевченково",
      "county": "",
      "municipality": "Снятинский район",
      "latitude": 48.52884,
      "longitude": 25.40774
    },
    {
      "id": 2315,
      "region_id": 13,
      "name": "Езуполь",
      "county": "",
      "municipality": "Тысменицкий район",
      "latitude": 49.04358,
      "longitude": 24.77648
    },
    {
      "id": 2321,
      "region_id": 13,
      "name": "Березовка",
      "county": "",
      "municipality": "Тысменицкий район",
      "latitude": 48.82655,
      "longitude": 24.69396
    },
    {
      "id": 2323,
      "region_id": 13,
      "name": "Братковцы",
      "county": "",
      "municipality": "Тысменицкий район",
      "latitude": 48.80973,
      "longitude": 24.72082
    },
    {
      "id": 689,
      "region_id": 24,
      "name": "Крыжополь",
      "county": "",
      "municipality": "Винницкая область",
      "latitude": 48.384,
      "longitude": 28.863
    },
    {
      "id": 2327,
      "region_id": 13,
      "name": "Ганнусовка",
      "county": "",
      "municipality": "Тысменицкий район",
      "latitude": 49.01,
      "longitude": 24.81
    },
    {
      "id": 2329,
      "region_id": 13,
      "name": "Добровляны",
      "county": "",
      "municipality": "Тысменицкий район",
      "latitude": 48.98951,
      "longitude": 24.35177
    },
    {
      "id": 2331,
      "region_id": 13,
      "name": "Долгое",
      "county": "",
      "municipality": "Тысменицкий район",
      "latitude": 49.03369,
      "longitude": 24.91927
    },
    {
      "id": 2333,
      "region_id": 13,
      "name": "Драгомирчаны",
      "county": "",
      "municipality": "Тысменицкий район",
      "latitude": 48.89159,
      "longitude": 24.6374
    },
    {
      "id": 2335,
      "region_id": 13,
      "name": "Загвоздье",
      "county": "",
      "municipality": "Тысменицкий район",
      "latitude": 48.92,
      "longitude": 24.65
    },
    {
      "id": 2337,
      "region_id": 13,
      "name": "Клубовцы",
      "county": "",
      "municipality": "Тысменицкий район",
      "latitude": 48.91558,
      "longitude": 24.91336
    },
    {
      "id": 2339,
      "region_id": 13,
      "name": "Клузев",
      "county": "",
      "municipality": "Тысменицкий район",
      "latitude": 48.95979,
      "longitude": 24.72621
    },
    {
      "id": 2341,
      "region_id": 13,
      "name": "Козина",
      "county": "",
      "municipality": "Тысменицкий район",
      "latitude": 49.07772,
      "longitude": 24.75052
    },
    {
      "id": 2343,
      "region_id": 13,
      "name": "Колодеевка",
      "county": "",
      "municipality": "Тысменицкий район",
      "latitude": 48.97709,
      "longitude": 24.76792
    },
    {
      "id": 2345,
      "region_id": 13,
      "name": "Красиловка",
      "county": "",
      "municipality": "Тысменицкий район",
      "latitude": 48.78323,
      "longitude": 24.88323
    },
    {
      "id": 2347,
      "region_id": 13,
      "name": "Липовка",
      "county": "",
      "municipality": "Тысменицкий район",
      "latitude": 48.78333,
      "longitude": 24.75
    },
    {
      "id": 701,
      "region_id": 2,
      "name": "Станица Луганская",
      "county": "",
      "municipality": "Луганская область",
      "latitude": 48.70313,
      "longitude": 39.41141
    },
    {
      "id": 2353,
      "region_id": 13,
      "name": "Майдан",
      "county": "",
      "municipality": "Тысменицкий район",
      "latitude": 49.00544,
      "longitude": 24.57249
    },
    {
      "id": 2355,
      "region_id": 13,
      "name": "Марковцы",
      "county": "",
      "municipality": "Тысменицкий район",
      "latitude": 48.8338,
      "longitude": 24.80276
    },
    {
      "id": 2357,
      "region_id": 13,
      "name": "Любование",
      "county": "",
      "municipality": "Тысменицкий район",
      "latitude": 48.96781,
      "longitude": 24.91958
    },
    {
      "id": 2359,
      "region_id": 13,
      "name": "Новые Кривотулы",
      "county": "",
      "municipality": "Тысменицкий район",
      "latitude": 48.79482,
      "longitude": 24.90261
    },
    {
      "id": 2361,
      "region_id": 13,
      "name": "Новая Гута",
      "county": "",
      "municipality": "Тысменицкий район",
      "latitude": 48.99267,
      "longitude": 24.5756
    },
    {
      "id": 2363,
      "region_id": 13,
      "name": "Новая Липовка",
      "county": "",
      "municipality": "Тысменицкий район",
      "latitude": 48.77257,
      "longitude": 24.76061
    },
    {
      "id": 2365,
      "region_id": 13,
      "name": "Одаи",
      "county": "",
      "municipality": "Тысменицкий район",
      "latitude": 48.81824,
      "longitude": 24.84146
    },
    {
      "id": 2367,
      "region_id": 13,
      "name": "Подлесье",
      "county": "",
      "municipality": "Тысменицкий район",
      "latitude": 48.90302,
      "longitude": 24.62246
    },
    {
      "id": 2369,
      "region_id": 13,
      "name": "Подлужье",
      "county": "",
      "municipality": "Тысменицкий район",
      "latitude": 48.93297,
      "longitude": 24.76736
    },
    {
      "id": 2371,
      "region_id": 13,
      "name": "Подпечеры",
      "county": "",
      "municipality": "Тысменицкий район",
      "latitude": 48.93,
      "longitude": 24.8
    },
    {
      "id": 2373,
      "region_id": 13,
      "name": "Павловка",
      "county": "",
      "municipality": "Тысменицкий район",
      "latitude": 48.98867,
      "longitude": 24.64644
    },
    {
      "id": 2375,
      "region_id": 13,
      "name": "Побережье",
      "county": "",
      "municipality": "Тысменицкий район",
      "latitude": 49.0174,
      "longitude": 24.8205
    },
    {
      "id": 2377,
      "region_id": 13,
      "name": "Погоня",
      "county": "",
      "municipality": "Тысменицкий район",
      "latitude": 48.88319,
      "longitude": 24.88515
    },
    {
      "id": 2379,
      "region_id": 13,
      "name": "Посич",
      "county": "",
      "municipality": "Тысменицкий район",
      "latitude": 48.90301,
      "longitude": 24.56935
    },
    {
      "id": 2381,
      "region_id": 13,
      "name": "Пшеничники",
      "county": "",
      "municipality": "Тысменицкий район",
      "latitude": 48.86985,
      "longitude": 24.87906
    },
    {
      "id": 2383,
      "region_id": 13,
      "name": "Радча",
      "county": "",
      "municipality": "Тысменицкий район",
      "latitude": 48.85098,
      "longitude": 24.65715
    },
    {
      "id": 2385,
      "region_id": 13,
      "name": "Рыбное",
      "county": "",
      "municipality": "Тысменицкий район",
      "latitude": 48.95403,
      "longitude": 24.61011
    },
    {
      "id": 2387,
      "region_id": 13,
      "name": "Рошнов",
      "county": "",
      "municipality": "Тысменицкий район",
      "latitude": 48.98382,
      "longitude": 24.90249
    },
    {
      "id": 2389,
      "region_id": 13,
      "name": "Селец",
      "county": "",
      "municipality": "Тысменицкий район",
      "latitude": 49.03,
      "longitude": 24.73
    },
    {
      "id": 2391,
      "region_id": 13,
      "name": "Слободка",
      "county": "",
      "municipality": "Тысменицкий район",
      "latitude": 48.29383,
      "longitude": 25.21785
    },
    {
      "id": 2393,
      "region_id": 13,
      "name": "Старые Кривотулы",
      "county": "",
      "municipality": "Тысменицкий район",
      "latitude": 48.78806,
      "longitude": 24.86221
    },
    {
      "id": 2395,
      "region_id": 13,
      "name": "Старая Гута",
      "county": "",
      "municipality": "Тысменицкий район",
      "latitude": 48.63069,
      "longitude": 24.20849
    },
    {
      "id": 2397,
      "region_id": 13,
      "name": "Старый Лисец",
      "county": "",
      "municipality": "Тысменицкий район",
      "latitude": 48.88019,
      "longitude": 24.59923
    },
    {
      "id": 687,
      "region_id": 5,
      "name": "Стебник",
      "county": "",
      "municipality": "Тысменицкий район",
      "latitude": 48.85807,
      "longitude": 24.5788
    },
    {
      "id": 2399,
      "region_id": 13,
      "name": "Стриганцы",
      "county": "",
      "municipality": "Тысменицкий район",
      "latitude": 49.00242,
      "longitude": 24.90922
    },
    {
      "id": 2401,
      "region_id": 13,
      "name": "Студинец",
      "county": "",
      "municipality": "Тысменицкий район",
      "latitude": 48.81379,
      "longitude": 24.81709
    },
    {
      "id": 2403,
      "region_id": 13,
      "name": "Терновица",
      "county": "",
      "municipality": "Тысменицкий район",
      "latitude": 48.79115,
      "longitude": 24.94178
    },
    {
      "id": 2405,
      "region_id": 13,
      "name": "Тысменица",
      "county": "",
      "municipality": "Тысменицкий район",
      "latitude": 48.90019,
      "longitude": 24.85197
    },
    {
      "id": 2415,
      "region_id": 13,
      "name": "Тязив",
      "county": "",
      "municipality": "Тысменицкий район",
      "latitude": 49.02171,
      "longitude": 24.68989
    },
    {
      "id": 2417,
      "region_id": 13,
      "name": "Угринов",
      "county": "",
      "municipality": "Тысменицкий район",
      "latitude": 48.95824,
      "longitude": 24.68002
    },
    {
      "id": 198,
      "region_id": 13,
      "name": "Узин",
      "county": "",
      "municipality": "Тысменицкий район",
      "latitude": 48.98532,
      "longitude": 24.81405
    },
    {
      "id": 2419,
      "region_id": 13,
      "name": "Хомяковка",
      "county": "",
      "municipality": "Тысменицкий район",
      "latitude": 48.85,
      "longitude": 24.83
    },
    {
      "id": 2421,
      "region_id": 13,
      "name": "Черниев",
      "county": "",
      "municipality": "Тысменицкий район",
      "latitude": 48.85746,
      "longitude": 24.72267
    },
    {
      "id": 2423,
      "region_id": 13,
      "name": "Чернолозцы",
      "county": "",
      "municipality": "Тысменицкий район",
      "latitude": 48.83,
      "longitude": 24.89
    },
    {
      "id": 2425,
      "region_id": 13,
      "name": "Чукаловка",
      "county": "",
      "municipality": "Тысменицкий район",
      "latitude": 48.86,
      "longitude": 24.68
    },
    {
      "id": 2427,
      "region_id": 13,
      "name": "Ямница",
      "county": "",
      "municipality": "Тысменицкий район",
      "latitude": 48.98481,
      "longitude": 24.70468
    },
    {
      "id": 2429,
      "region_id": 13,
      "name": "Исаака",
      "county": "",
      "municipality": "Тлумачский район",
      "latitude": 48.82679,
      "longitude": 25.22127
    },
    {
      "id": 2431,
      "region_id": 13,
      "name": "Антоновка",
      "county": "",
      "municipality": "Тлумачский район",
      "latitude": 48.94741,
      "longitude": 25.0503
    },
    {
      "id": 2433,
      "region_id": 13,
      "name": "Бортники",
      "county": "",
      "municipality": "Тлумачский район",
      "latitude": 48.76,
      "longitude": 25.03
    },
    {
      "id": 2435,
      "region_id": 13,
      "name": "Братышев",
      "county": "",
      "municipality": "Тлумачский район",
      "latitude": 48.93416,
      "longitude": 25.04213
    },
    {
      "id": 2437,
      "region_id": 13,
      "name": "Будзин",
      "county": "",
      "municipality": "Тлумачский район",
      "latitude": 48.90391,
      "longitude": 25.19263
    },
    {
      "id": 2439,
      "region_id": 13,
      "name": "Буковна",
      "county": "",
      "municipality": "Тлумачский район",
      "latitude": 48.96842,
      "longitude": 24.9694
    },
    {
      "id": 2441,
      "region_id": 13,
      "name": "Бушкалик",
      "county": "",
      "municipality": "Тлумачский район",
      "latitude": 48.93576,
      "longitude": 25.0758
    },
    {
      "id": 2443,
      "region_id": 13,
      "name": "Викняное",
      "county": "",
      "municipality": "Тлумачский район",
      "latitude": 48.79711,
      "longitude": 24.76433
    },
    {
      "id": 2445,
      "region_id": 13,
      "name": "Вольное",
      "county": "",
      "municipality": "Тлумачский район",
      "latitude": 48.98687,
      "longitude": 25.10158
    },
    {
      "id": 2447,
      "region_id": 13,
      "name": "Гавриляк",
      "county": "",
      "municipality": "Тлумачский район",
      "latitude": 48.7249,
      "longitude": 25.21012
    },
    {
      "id": 2449,
      "region_id": 13,
      "name": "Гарасимов",
      "county": "",
      "municipality": "Тлумачский район",
      "latitude": 48.7635,
      "longitude": 25.21683
    },
    {
      "id": 2451,
      "region_id": 13,
      "name": "Гончаров",
      "county": "",
      "municipality": "Тлумачский район",
      "latitude": 48.66447,
      "longitude": 25.21683
    },
    {
      "id": 2453,
      "region_id": 13,
      "name": "Гончаровка",
      "county": "",
      "municipality": "Тлумачский район",
      "latitude": 48.86691,
      "longitude": 25.02262
    },
    {
      "id": 2455,
      "region_id": 13,
      "name": "Гостев",
      "county": "",
      "municipality": "Тлумачский район",
      "latitude": 48.808,
      "longitude": 24.538
    },
    {
      "id": 2457,
      "region_id": 13,
      "name": "Грабычанка",
      "county": "",
      "municipality": "Тлумачский район",
      "latitude": 48.87744,
      "longitude": 25.11605
    },
    {
      "id": 2459,
      "region_id": 13,
      "name": "Гриновцы",
      "county": "",
      "municipality": "Тлумачский район",
      "latitude": 48.83562,
      "longitude": 24.95793
    },
    {
      "id": 2461,
      "region_id": 13,
      "name": "Грушка",
      "county": "",
      "municipality": "Тлумачский район",
      "latitude": 48.80527,
      "longitude": 25.06604
    },
    {
      "id": 2463,
      "region_id": 13,
      "name": "Диброва",
      "county": "",
      "municipality": "Тлумачский район",
      "latitude": 49.00984,
      "longitude": 23.98028
    },
    {
      "id": 2465,
      "region_id": 13,
      "name": "Делева",
      "county": "",
      "municipality": "Тлумачский район",
      "latitude": 48.91,
      "longitude": 25.21
    },
    {
      "id": 2467,
      "region_id": 13,
      "name": "Долина",
      "county": "",
      "municipality": "Тлумачский район",
      "latitude": 48.97336,
      "longitude": 24.00331
    },
    {
      "id": 2469,
      "region_id": 13,
      "name": "Жабокруки",
      "county": "",
      "municipality": "Тлумачский район",
      "latitude": 48.75,
      "longitude": 25.16
    },
    {
      "id": 2471,
      "region_id": 13,
      "name": "Живачов",
      "county": "",
      "municipality": "Тлумачский район",
      "latitude": 48.80178,
      "longitude": 25.16754
    },
    {
      "id": 2473,
      "region_id": 13,
      "name": "Жуков",
      "county": "",
      "municipality": "Тлумачский район",
      "latitude": 48.70462,
      "longitude": 25.10762
    },
    {
      "id": 2475,
      "region_id": 13,
      "name": "Золотая Липа",
      "county": "",
      "municipality": "Тлумачский район",
      "latitude": 48.98639,
      "longitude": 25.0689
    },
    {
      "id": 2477,
      "region_id": 13,
      "name": "Колинцы",
      "county": "",
      "municipality": "Тлумачский район",
      "latitude": 48.84675,
      "longitude": 24.96198
    },
    {
      "id": 2479,
      "region_id": 13,
      "name": "Королевка",
      "county": "",
      "municipality": "Тлумачский район",
      "latitude": 48.80946,
      "longitude": 25.00165
    },
    {
      "id": 2481,
      "region_id": 13,
      "name": "Купелов",
      "county": "",
      "municipality": "Тлумачский район",
      "latitude": 48.95732,
      "longitude": 25.04361
    },
    {
      "id": 2483,
      "region_id": 13,
      "name": "Кутище",
      "county": "",
      "municipality": "Тлумачский район",
      "latitude": 48.90729,
      "longitude": 25.11751
    },
    {
      "id": 2485,
      "region_id": 13,
      "name": "Лысая Гора",
      "county": "",
      "municipality": "Тлумачский район",
      "latitude": 48.90704,
      "longitude": 25.0926
    },
    {
      "id": 2487,
      "region_id": 13,
      "name": "Локитка",
      "county": "",
      "municipality": "Тлумачский район",
      "latitude": 48.88233,
      "longitude": 25.01682
    },
    {
      "id": 2489,
      "region_id": 13,
      "name": "Луг",
      "county": "",
      "municipality": "Тлумачский район",
      "latitude": 48.92177,
      "longitude": 25.1967
    },
    {
      "id": 2491,
      "region_id": 13,
      "name": "Мельники",
      "county": "",
      "municipality": "Тлумачский район",
      "latitude": 48.82613,
      "longitude": 25.02802
    },
    {
      "id": 2493,
      "region_id": 13,
      "name": "Мостище",
      "county": "",
      "municipality": "Тлумачский район",
      "latitude": 49.06,
      "longitude": 24.33
    },
    {
      "id": 2495,
      "region_id": 13,
      "name": "Надорожная",
      "county": "",
      "municipality": "Тлумачский район",
      "latitude": 48.88,
      "longitude": 24.93
    },
    {
      "id": 2497,
      "region_id": 13,
      "name": "Нижнев",
      "county": "",
      "municipality": "Тлумачский район",
      "latitude": 48.94364,
      "longitude": 25.09396
    },
    {
      "id": 2499,
      "region_id": 13,
      "name": "Новоселка",
      "county": "",
      "municipality": "Тлумачский район",
      "latitude": 48.98768,
      "longitude": 25.04008
    },
    {
      "id": 2501,
      "region_id": 13,
      "name": "Обертин",
      "county": "",
      "municipality": "Тлумачский район",
      "latitude": 48.69435,
      "longitude": 25.17473
    },
    {
      "id": 2507,
      "region_id": 13,
      "name": "Одаив",
      "county": "",
      "municipality": "Тлумачский район",
      "latitude": 48.86023,
      "longitude": 25.15547
    },
    {
      "id": 2509,
      "region_id": 13,
      "name": "Озеряны",
      "county": "",
      "municipality": "Тлумачский район",
      "latitude": 49.27913,
      "longitude": 24.69351
    },
    {
      "id": 2511,
      "region_id": 13,
      "name": "Олешив",
      "county": "",
      "municipality": "Тлумачский район",
      "latitude": 48.94346,
      "longitude": 24.98448
    },
    {
      "id": 2513,
      "region_id": 13,
      "name": "Олеша",
      "county": "",
      "municipality": "Тлумачский район",
      "latitude": 48.83668,
      "longitude": 25.13852
    },
    {
      "id": 2515,
      "region_id": 13,
      "name": "Олещин",
      "county": "",
      "municipality": "Тлумачский район",
      "latitude": 48.71968,
      "longitude": 25.06
    },
    {
      "id": 2517,
      "region_id": 13,
      "name": "Острыня",
      "county": "",
      "municipality": "Тлумачский район",
      "latitude": 48.92512,
      "longitude": 24.96509
    },
    {
      "id": 2519,
      "region_id": 13,
      "name": "Подвербцы",
      "county": "",
      "municipality": "Тлумачский район",
      "latitude": 48.80569,
      "longitude": 25.23123
    },
    {
      "id": 2521,
      "region_id": 13,
      "name": "Палагичи",
      "county": "",
      "municipality": "Тлумачский район",
      "latitude": 48.90216,
      "longitude": 24.99484
    },
    {
      "id": 2523,
      "region_id": 13,
      "name": "Петров",
      "county": "",
      "municipality": "Тлумачский район",
      "latitude": 48.808,
      "longitude": 24.538
    },
    {
      "id": 2525,
      "region_id": 13,
      "name": "Петрилив",
      "county": "",
      "municipality": "Тлумачский район",
      "latitude": 48.98282,
      "longitude": 25.00009
    },
    {
      "id": 2527,
      "region_id": 13,
      "name": "Попелов",
      "county": "",
      "municipality": "Тлумачский район",
      "latitude": 48.88267,
      "longitude": 25.03854
    },
    {
      "id": 2529,
      "region_id": 13,
      "name": "Прибылов",
      "county": "",
      "municipality": "Тлумачский район",
      "latitude": 48.77231,
      "longitude": 24.99443
    },
    {
      "id": 2531,
      "region_id": 13,
      "name": "Пужники",
      "county": "",
      "municipality": "Тлумачский район",
      "latitude": 48.76512,
      "longitude": 25.0602
    },
    {
      "id": 2533,
      "region_id": 13,
      "name": "Советское Загорье",
      "county": "",
      "municipality": "Тлумачский район",
      "latitude": 48.91015,
      "longitude": 25.04733
    },
    {
      "id": 2535,
      "region_id": 13,
      "name": "Смерклов",
      "county": "",
      "municipality": "Тлумачский район",
      "latitude": 48.9405,
      "longitude": 25.13929
    },
    {
      "id": 2537,
      "region_id": 13,
      "name": "Сокирчин",
      "county": "",
      "municipality": "Тлумачский район",
      "latitude": 48.86438,
      "longitude": 25.24415
    },
    {
      "id": 2539,
      "region_id": 13,
      "name": "Соколовка",
      "county": "",
      "municipality": "Тлумачский район",
      "latitude": 48.86695,
      "longitude": 25.11791
    },
    {
      "id": 2541,
      "region_id": 13,
      "name": "Суходол",
      "county": "",
      "municipality": "Тлумачский район",
      "latitude": 48.79248,
      "longitude": 24.01297
    },
    {
      "id": 2543,
      "region_id": 13,
      "name": "Тарасовка",
      "county": "",
      "municipality": "Тлумачский район",
      "latitude": 48.85114,
      "longitude": 25.04732
    },
    {
      "id": 244,
      "region_id": 13,
      "name": "Тлумач",
      "county": "",
      "municipality": "Тлумачский район",
      "latitude": 48.8588,
      "longitude": 24.99681
    },
    {
      "id": 2553,
      "region_id": 13,
      "name": "Хотимир",
      "county": "",
      "municipality": "Тлумачский район",
      "latitude": 48.75,
      "longitude": 25.1
    },
    {
      "id": 2555,
      "region_id": 13,
      "name": "Яковка",
      "county": "",
      "municipality": "Тлумачский район",
      "latitude": 48.66318,
      "longitude": 25.17079
    },
    {
      "id": 2557,
      "region_id": 13,
      "name": "Вороненко",
      "county": "",
      "municipality": "Яремча, город",
      "latitude": 48.28425,
      "longitude": 24.50515
    },
    {
      "id": 2559,
      "region_id": 13,
      "name": "Ворохта",
      "county": "",
      "municipality": "Яремча, город",
      "latitude": 48.28345,
      "longitude": 24.56706
    },
    {
      "id": 2561,
      "region_id": 13,
      "name": "Кременце",
      "county": "",
      "municipality": "Яремча, город",
      "latitude": 48.79711,
      "longitude": 24.76433
    },
    {
      "id": 2563,
      "region_id": 13,
      "name": "Микуличин",
      "county": "",
      "municipality": "Яремча, город",
      "latitude": 48.41451,
      "longitude": 24.60827
    },
    {
      "id": 2565,
      "region_id": 13,
      "name": "Паляница",
      "county": "",
      "municipality": "Яремча, город",
      "latitude": 48.35,
      "longitude": 24.4485
    },
    {
      "id": 2567,
      "region_id": 13,
      "name": "Яблуница",
      "county": "",
      "municipality": "Яремча, город",
      "latitude": 48.31,
      "longitude": 24.48
    },
    {
      "id": 2569,
      "region_id": 13,
      "name": "Яремча",
      "county": "",
      "municipality": "",
      "latitude": 48.48156,
      "longitude": 24.58192
    },
    {
      "id": 2581,
      "region_id": 16,
      "name": "Евпатория",
      "county": "",
      "municipality": "",
      "latitude": 45.19068,
      "longitude": 33.3679
    },
    {
      "id": 2763,
      "region_id": 16,
      "name": "Заозерное",
      "county": "",
      "municipality": "Евпатория, город",
      "latitude": 45.16,
      "longitude": 33.28
    },
    {
      "id": 2765,
      "region_id": 16,
      "name": "Мирный",
      "county": "",
      "municipality": "Евпатория, город",
      "latitude": 45.30817,
      "longitude": 33.03515
    },
    {
      "id": 2767,
      "region_id": 16,
      "name": "Новоозерное",
      "county": "",
      "municipality": "Евпатория, город",
      "latitude": 45.38595,
      "longitude": 33.1171
    },
    {
      "id": 2769,
      "region_id": 16,
      "name": "Изобильное",
      "county": "",
      "municipality": "Алушта, город",
      "latitude": 44.71,
      "longitude": 34.35
    },
    {
      "id": 234,
      "region_id": 16,
      "name": "Алушта",
      "county": "",
      "municipality": "",
      "latitude": 44.67446,
      "longitude": 34.41222
    },
    {
      "id": 2809,
      "region_id": 16,
      "name": "Бондаренково",
      "county": "",
      "municipality": "Алушта, город",
      "latitude": 45.40056,
      "longitude": 36.48965
    },
    {
      "id": 2811,
      "region_id": 16,
      "name": "Верхняя Кутузовка",
      "county": "",
      "municipality": "Алушта, город",
      "latitude": 44.72224,
      "longitude": 34.37349
    },
    {
      "id": 2813,
      "region_id": 16,
      "name": "Виноградный",
      "county": "",
      "municipality": "Алушта, город",
      "latitude": 44.6413,
      "longitude": 34.37317
    },
    {
      "id": 2815,
      "region_id": 16,
      "name": "Генеральское",
      "county": "",
      "municipality": "Алушта, город",
      "latitude": 44.79959,
      "longitude": 34.48415
    },
    {
      "id": 2817,
      "region_id": 16,
      "name": "Запрудное",
      "county": "",
      "municipality": "Алушта, город",
      "latitude": 44.59291,
      "longitude": 34.31621
    },
    {
      "id": 2819,
      "region_id": 16,
      "name": "Зеленогорье",
      "county": "",
      "municipality": "Алушта, город",
      "latitude": 44.87232,
      "longitude": 34.71903
    },
    {
      "id": 2821,
      "region_id": 16,
      "name": "Кипарисное",
      "county": "",
      "municipality": "Алушта, город",
      "latitude": 44.60091,
      "longitude": 34.35008
    },
    {
      "id": 2823,
      "region_id": 16,
      "name": "Лаванда",
      "county": "",
      "municipality": "Алушта, город",
      "latitude": 44.74401,
      "longitude": 34.37103
    },
    {
      "id": 2825,
      "region_id": 16,
      "name": "Лавровое",
      "county": "",
      "municipality": "Алушта, город",
      "latitude": 44.57565,
      "longitude": 34.32475
    },
    {
      "id": 2827,
      "region_id": 16,
      "name": "Лазурное",
      "county": "",
      "municipality": "Алушта, город",
      "latitude": 44.63452,
      "longitude": 34.38918
    },
    {
      "id": 2829,
      "region_id": 16,
      "name": "Лучистое",
      "county": "",
      "municipality": "Алушта, город",
      "latitude": 44.73685,
      "longitude": 34.40155
    },
    {
      "id": 2831,
      "region_id": 16,
      "name": "Малый Маяк",
      "county": "",
      "municipality": "Алушта, город",
      "latitude": 44.6114,
      "longitude": 34.36328
    },
    {
      "id": 2833,
      "region_id": 16,
      "name": "Малореченское",
      "county": "",
      "municipality": "Алушта, город",
      "latitude": 44.75833,
      "longitude": 34.55694
    },
    {
      "id": 2835,
      "region_id": 16,
      "name": "Нижнее Запрудное",
      "county": "",
      "municipality": "Алушта, город",
      "latitude": 44.5881,
      "longitude": 34.31882
    },
    {
      "id": 2837,
      "region_id": 16,
      "name": "Нижняя Кутузовка",
      "county": "",
      "municipality": "Алушта, город",
      "latitude": 44.7076,
      "longitude": 34.37994
    },
    {
      "id": 2839,
      "region_id": 16,
      "name": "Партенит",
      "county": "",
      "municipality": "Алушта, город",
      "latitude": 44.94379,
      "longitude": 34.38974
    },
    {
      "id": 2845,
      "region_id": 16,
      "name": "Приветное",
      "county": "",
      "municipality": "Алушта, город",
      "latitude": 44.82294,
      "longitude": 34.67738
    },
    {
      "id": 2847,
      "region_id": 16,
      "name": "Пушкино",
      "county": "",
      "municipality": "Алушта, город",
      "latitude": 44.59539,
      "longitude": 34.3414
    },
    {
      "id": 2849,
      "region_id": 16,
      "name": "Рыбачье",
      "county": "",
      "municipality": "Алушта, город",
      "latitude": 44.77392,
      "longitude": 34.59689
    },
    {
      "id": 2851,
      "region_id": 16,
      "name": "Розовый",
      "county": "",
      "municipality": "Алушта, город",
      "latitude": 44.69684,
      "longitude": 34.32439
    },
    {
      "id": 2853,
      "region_id": 16,
      "name": "Семидворье",
      "county": "",
      "municipality": "Алушта, город",
      "latitude": 44.71891,
      "longitude": 34.46342
    },
    {
      "id": 2855,
      "region_id": 16,
      "name": "Солнечногорское",
      "county": "",
      "municipality": "Алушта, город",
      "latitude": 44.74694,
      "longitude": 34.54005
    },
    {
      "id": 2857,
      "region_id": 16,
      "name": "Утес",
      "county": "",
      "municipality": "Алушта, город",
      "latitude": 44.59609,
      "longitude": 34.36989
    },
    {
      "id": 2859,
      "region_id": 16,
      "name": "Чайка",
      "county": "",
      "municipality": "Алушта, город",
      "latitude": 44.61708,
      "longitude": 34.37909
    },
    {
      "id": 2861,
      "region_id": 16,
      "name": "Анновка",
      "county": "",
      "municipality": "Белогорский район",
      "latitude": 45.25767,
      "longitude": 34.30262
    },
    {
      "id": 2863,
      "region_id": 16,
      "name": "Ароматное",
      "county": "",
      "municipality": "Белогорский район",
      "latitude": 45.03669,
      "longitude": 34.40047
    },
    {
      "id": 2865,
      "region_id": 16,
      "name": "Белая Скала",
      "county": "",
      "municipality": "Белогорский район",
      "latitude": 45.09262,
      "longitude": 34.62172
    },
    {
      "id": 2867,
      "region_id": 16,
      "name": "Белогорск",
      "county": "",
      "municipality": "Белогорский район",
      "latitude": 45.05405,
      "longitude": 34.60011
    },
    {
      "id": 2887,
      "region_id": 16,
      "name": "Богатое",
      "county": "",
      "municipality": "Белогорский район",
      "latitude": 45.02758,
      "longitude": 34.76762
    },
    {
      "id": 2889,
      "region_id": 16,
      "name": "Баланово",
      "county": "",
      "municipality": "Белогорский район",
      "latitude": 45.00135,
      "longitude": 34.33243
    },
    {
      "id": 2891,
      "region_id": 16,
      "name": "Балки",
      "county": "",
      "municipality": "Белогорский район",
      "latitude": 44.99349,
      "longitude": 34.45732
    },
    {
      "id": 2893,
      "region_id": 16,
      "name": "Барабаново",
      "county": "",
      "municipality": "Белогорский район",
      "latitude": 44.98052,
      "longitude": 34.32019
    },
    {
      "id": 2895,
      "region_id": 16,
      "name": "Васильевка",
      "county": "",
      "municipality": "Белогорский район",
      "latitude": 45.13935,
      "longitude": 34.72378
    },
    {
      "id": 2897,
      "region_id": 16,
      "name": "Верхние Орешники",
      "county": "",
      "municipality": "Белогорский район",
      "latitude": 45.00962,
      "longitude": 34.29277
    },
    {
      "id": 2899,
      "region_id": 16,
      "name": "Вишенное",
      "county": "",
      "municipality": "Белогорский район",
      "latitude": 45.13626,
      "longitude": 34.60255
    },
    {
      "id": 2901,
      "region_id": 16,
      "name": "Вишневое",
      "county": "",
      "municipality": "Белогорский район",
      "latitude": 45.02785,
      "longitude": 34.33676
    },
    {
      "id": 2903,
      "region_id": 16,
      "name": "Владимировка",
      "county": "",
      "municipality": "Белогорский район",
      "latitude": 45.11591,
      "longitude": 34.29405
    },
    {
      "id": 2905,
      "region_id": 16,
      "name": "Головановка",
      "county": "",
      "municipality": "Белогорский район",
      "latitude": 44.97253,
      "longitude": 34.63306
    },
    {
      "id": 2907,
      "region_id": 16,
      "name": "Горлинка",
      "county": "",
      "municipality": "Белогорский район",
      "latitude": 45.00897,
      "longitude": 34.75464
    },
    {
      "id": 2909,
      "region_id": 16,
      "name": "Странное",
      "county": "",
      "municipality": "Белогорский район",
      "latitude": 45.05395,
      "longitude": 34.83821
    },
    {
      "id": 2911,
      "region_id": 16,
      "name": "Дозорное",
      "county": "",
      "municipality": "Белогорский район",
      "latitude": 45.02091,
      "longitude": 34.70113
    },
    {
      "id": 2913,
      "region_id": 16,
      "name": "Долиновка",
      "county": "",
      "municipality": "Белогорский район",
      "latitude": 45.1364,
      "longitude": 34.37897
    },
    {
      "id": 2915,
      "region_id": 16,
      "name": "Заречье",
      "county": "",
      "municipality": "Белогорский район",
      "latitude": 45.36118,
      "longitude": 34.71188
    },
    {
      "id": 2917,
      "region_id": 16,
      "name": "Зеленогорское",
      "county": "",
      "municipality": "Белогорский район",
      "latitude": 45.01107,
      "longitude": 34.46752
    },
    {
      "id": 2919,
      "region_id": 16,
      "name": "Земляничное",
      "county": "",
      "municipality": "Белогорский район",
      "latitude": 44.97545,
      "longitude": 34.83778
    },
    {
      "id": 2921,
      "region_id": 16,
      "name": "Зыбины",
      "county": "",
      "municipality": "Белогорский район",
      "latitude": 45.23309,
      "longitude": 34.65204
    },
    {
      "id": 2923,
      "region_id": 16,
      "name": "Зуя",
      "county": "",
      "municipality": "Белогорский район",
      "latitude": 45.05437,
      "longitude": 34.31793
    },
    {
      "id": 2925,
      "region_id": 16,
      "name": "Карасевка",
      "county": "",
      "municipality": "Белогорский район",
      "latitude": 44.99202,
      "longitude": 34.60525
    },
    {
      "id": 2927,
      "region_id": 16,
      "name": "Кизиловка",
      "county": "",
      "municipality": "Белогорский район",
      "latitude": 44.81725,
      "longitude": 34.04199
    },
    {
      "id": 2929,
      "region_id": 16,
      "name": "Кирпичное",
      "county": "",
      "municipality": "Белогорский район",
      "latitude": 45.0246,
      "longitude": 34.63509
    },
    {
      "id": 2931,
      "region_id": 16,
      "name": "Красная Слобода",
      "county": "",
      "municipality": "Белогорский район",
      "latitude": 44.98389,
      "longitude": 34.7432
    },
    {
      "id": 2933,
      "region_id": 16,
      "name": "Красногорское",
      "county": "",
      "municipality": "Белогорский район",
      "latitude": 45.00781,
      "longitude": 34.3482
    },
    {
      "id": 2935,
      "region_id": 16,
      "name": "Красноселовка",
      "county": "",
      "municipality": "Белогорский район",
      "latitude": 44.92823,
      "longitude": 34.63353
    },
    {
      "id": 2937,
      "region_id": 16,
      "name": "Кривцово",
      "county": "",
      "municipality": "Белогорский район",
      "latitude": 45.07135,
      "longitude": 34.85951
    },
    {
      "id": 2939,
      "region_id": 16,
      "name": "Крымская Роза",
      "county": "",
      "municipality": "Белогорский район",
      "latitude": 45.05938,
      "longitude": 34.35726
    },
    {
      "id": 2941,
      "region_id": 16,
      "name": "Криничное",
      "county": "",
      "municipality": "Белогорский район",
      "latitude": 45.02469,
      "longitude": 34.6119
    },
    {
      "id": 2943,
      "region_id": 16,
      "name": "Курортное",
      "county": "",
      "municipality": "Белогорский район",
      "latitude": 44.99576,
      "longitude": 34.36418
    },
    {
      "id": 2945,
      "region_id": 16,
      "name": "Курское",
      "county": "",
      "municipality": "Белогорский район",
      "latitude": 45.02722,
      "longitude": 34.93574
    },
    {
      "id": 2947,
      "region_id": 16,
      "name": "Лечебное",
      "county": "",
      "municipality": "Белогорский район",
      "latitude": 45.04998,
      "longitude": 34.74494
    },
    {
      "id": 2949,
      "region_id": 16,
      "name": "Литвиненково",
      "county": "",
      "municipality": "Белогорский район",
      "latitude": 45.08621,
      "longitude": 34.31153
    },
    {
      "id": 2951,
      "region_id": 16,
      "name": "Луговое",
      "county": "",
      "municipality": "Белогорский район",
      "latitude": 45.14775,
      "longitude": 34.49234
    },
    {
      "id": 2953,
      "region_id": 16,
      "name": "Межгорье",
      "county": "",
      "municipality": "Белогорский район",
      "latitude": 44.97866,
      "longitude": 34.41031
    },
    {
      "id": 2955,
      "region_id": 16,
      "name": "Мичуринское",
      "county": "",
      "municipality": "Белогорский район",
      "latitude": 45.07355,
      "longitude": 34.70747
    },
    {
      "id": 2957,
      "region_id": 16,
      "name": "Малиновка",
      "county": "",
      "municipality": "Белогорский район",
      "latitude": 45.13136,
      "longitude": 34.73729
    },
    {
      "id": 2959,
      "region_id": 16,
      "name": "Мелехово",
      "county": "",
      "municipality": "Белогорский район",
      "latitude": 45.03646,
      "longitude": 34.78581
    },
    {
      "id": 2961,
      "region_id": 16,
      "name": "Мельники",
      "county": "",
      "municipality": "Белогорский район",
      "latitude": 45.1964,
      "longitude": 34.62009
    },
    {
      "id": 2963,
      "region_id": 16,
      "name": "Мельничное",
      "county": "",
      "municipality": "Белогорский район",
      "latitude": 45.76605,
      "longitude": 34.03472
    },
    {
      "id": 2965,
      "region_id": 16,
      "name": "Мироновка",
      "county": "",
      "municipality": "Белогорский район",
      "latitude": 45.40046,
      "longitude": 34.45128
    },
    {
      "id": 2967,
      "region_id": 16,
      "name": "Муромское",
      "county": "",
      "municipality": "Белогорский район",
      "latitude": 45.09076,
      "longitude": 34.84844
    },
    {
      "id": 2969,
      "region_id": 16,
      "name": "Некрасово",
      "county": "",
      "municipality": "Белогорский район",
      "latitude": 45.42237,
      "longitude": 34.28229
    },
    {
      "id": 2971,
      "region_id": 16,
      "name": "Нижние Орешники",
      "county": "",
      "municipality": "Белогорский район",
      "latitude": 45.04646,
      "longitude": 34.3025
    },
    {
      "id": 2973,
      "region_id": 16,
      "name": "Новогригорьевка",
      "county": "",
      "municipality": "Белогорский район",
      "latitude": 45.02146,
      "longitude": 34.48526
    },
    {
      "id": 2975,
      "region_id": 16,
      "name": "Новожиловка",
      "county": "",
      "municipality": "Белогорский район",
      "latitude": 45.16273,
      "longitude": 34.23601
    },
    {
      "id": 2977,
      "region_id": 16,
      "name": "Новокленовое",
      "county": "",
      "municipality": "Белогорский район",
      "latitude": 45.00707,
      "longitude": 34.49454
    },
    {
      "id": 2979,
      "region_id": 16,
      "name": "Новоалександровка",
      "county": "",
      "municipality": "Белогорский район",
      "latitude": 45.19196,
      "longitude": 34.28396
    },
    {
      "id": 2981,
      "region_id": 16,
      "name": "Овражки",
      "county": "",
      "municipality": "Белогорский район",
      "latitude": 44.96986,
      "longitude": 34.41679
    },
    {
      "id": 2983,
      "region_id": 16,
      "name": "Алексеевка",
      "county": "",
      "municipality": "Белогорский район",
      "latitude": 45.58268,
      "longitude": 33.63268
    },
    {
      "id": 2985,
      "region_id": 16,
      "name": "Александровка",
      "county": "",
      "municipality": "Белогорский район",
      "latitude": 45.0004,
      "longitude": 33.75605
    },
    {
      "id": 2987,
      "region_id": 16,
      "name": "Оленевка",
      "county": "",
      "municipality": "Белогорский район",
      "latitude": 45.37115,
      "longitude": 32.53425
    },
    {
      "id": 2989,
      "region_id": 16,
      "name": "Опытное",
      "county": "",
      "municipality": "Белогорский район",
      "latitude": 44.99729,
      "longitude": 34.90215
    },
    {
      "id": 2991,
      "region_id": 16,
      "name": "Павловка",
      "county": "",
      "municipality": "Белогорский район",
      "latitude": 45.17977,
      "longitude": 34.71419
    },
    {
      "id": 2993,
      "region_id": 16,
      "name": "Пасечное",
      "county": "",
      "municipality": "Белогорский район",
      "latitude": 44.98906,
      "longitude": 34.42223
    },
    {
      "id": 555,
      "region_id": 16,
      "name": "Петрово",
      "county": "",
      "municipality": "Белогорский район",
      "latitude": 44.98753,
      "longitude": 34.30545
    },
    {
      "id": 2995,
      "region_id": 16,
      "name": "Поворотное",
      "county": "",
      "municipality": "Белогорский район",
      "latitude": 44.94882,
      "longitude": 34.72257
    },
    {
      "id": 2997,
      "region_id": 16,
      "name": "Брешь",
      "county": "",
      "municipality": "Белогорский район",
      "latitude": 45.10984,
      "longitude": 34.71917
    },
    {
      "id": 2999,
      "region_id": 16,
      "name": "Пчелиное",
      "county": "",
      "municipality": "Белогорский район",
      "latitude": 44.93354,
      "longitude": 34.54556
    },
    {
      "id": 3001,
      "region_id": 16,
      "name": "Радостное",
      "county": "",
      "municipality": "Белогорский район",
      "latitude": 44.99731,
      "longitude": 34.84424
    },
    {
      "id": 3003,
      "region_id": 16,
      "name": "Родники",
      "county": "",
      "municipality": "Белогорский район",
      "latitude": 45.46774,
      "longitude": 34.84455
    },
    {
      "id": 3005,
      "region_id": 16,
      "name": "Русаковка",
      "county": "",
      "municipality": "Белогорский район",
      "latitude": 45.12294,
      "longitude": 34.47223
    },
    {
      "id": 3007,
      "region_id": 16,
      "name": "Русское",
      "county": "",
      "municipality": "Белогорский район",
      "latitude": 45.02008,
      "longitude": 34.79111
    },
    {
      "id": 3009,
      "region_id": 16,
      "name": "Северное",
      "county": "",
      "municipality": "Белогорский район",
      "latitude": 45.6851,
      "longitude": 33.05952
    },
    {
      "id": 3011,
      "region_id": 16,
      "name": "Сенное",
      "county": "",
      "municipality": "Белогорский район",
      "latitude": 45.06496,
      "longitude": 34.83128
    },
    {
      "id": 3013,
      "region_id": 16,
      "name": "Синекамянка",
      "county": "",
      "municipality": "Белогорский район",
      "latitude": 44.9697,
      "longitude": 34.77837
    },
    {
      "id": 3015,
      "region_id": 16,
      "name": "Тополевка",
      "county": "",
      "municipality": "Белогорский район",
      "latitude": 45.01074,
      "longitude": 34.87874
    },
    {
      "id": 3017,
      "region_id": 16,
      "name": "Тургенево",
      "county": "",
      "municipality": "Белогорский район",
      "latitude": 45.89027,
      "longitude": 34.58215
    },
    {
      "id": 3019,
      "region_id": 16,
      "name": "Ударная",
      "county": "",
      "municipality": "Белогорский район",
      "latitude": 45.78393,
      "longitude": 34.26589
    },
    {
      "id": 3021,
      "region_id": 16,
      "name": "Украинское",
      "county": "",
      "municipality": "Белогорский район",
      "latitude": 45.13104,
      "longitude": 34.2787
    },
    {
      "id": 3023,
      "region_id": 16,
      "name": "Ульяновка",
      "county": "",
      "municipality": "Белогорский район",
      "latitude": 45.5654,
      "longitude": 33.30628
    },
    {
      "id": 3025,
      "region_id": 16,
      "name": "Учебное",
      "county": "",
      "municipality": "Белогорский район",
      "latitude": 44.99978,
      "longitude": 34.87985
    },
    {
      "id": 3027,
      "region_id": 16,
      "name": "Хлебное",
      "county": "",
      "municipality": "Белогорский район",
      "latitude": 45.64535,
      "longitude": 34.60584
    },
    {
      "id": 3029,
      "region_id": 16,
      "name": "Цветочное",
      "county": "",
      "municipality": "Белогорский район",
      "latitude": 45.0867,
      "longitude": 34.38534
    },
    {
      "id": 3031,
      "region_id": 16,
      "name": "Черемисовка",
      "county": "",
      "municipality": "Белогорский район",
      "latitude": 45.01464,
      "longitude": 34.73448
    },
    {
      "id": 3033,
      "region_id": 16,
      "name": "Чернополья",
      "county": "",
      "municipality": "Белогорский район",
      "latitude": 45.04147,
      "longitude": 34.63975
    },
    {
      "id": 3035,
      "region_id": 16,
      "name": "Яблочное",
      "county": "",
      "municipality": "Белогорский район",
      "latitude": 45.07699,
      "longitude": 34.61531
    },
    {
      "id": 3037,
      "region_id": 16,
      "name": "Яковлевка",
      "county": "",
      "municipality": "Белогорский район",
      "latitude": 44.98559,
      "longitude": 34.45924
    },
    {
      "id": 3039,
      "region_id": 16,
      "name": "Айвовое",
      "county": "",
      "municipality": "Бахчисарайский район",
      "latitude": 44.73898,
      "longitude": 33.64499
    },
    {
      "id": 3041,
      "region_id": 16,
      "name": "Аромат",
      "county": "",
      "municipality": "Бахчисарайский район",
      "latitude": 44.57751,
      "longitude": 33.93905
    },
    {
      "id": 3043,
      "region_id": 16,
      "name": "Ароматное",
      "county": "",
      "municipality": "Бахчисарайский район",
      "latitude": 45.03669,
      "longitude": 34.40047
    },
    {
      "id": 3045,
      "region_id": 16,
      "name": "Белокаменный",
      "county": "",
      "municipality": "Бахчисарайский район",
      "latitude": 44.68139,
      "longitude": 33.84083
    },
    {
      "id": 3047,
      "region_id": 16,
      "name": "Богатое Ущелье",
      "county": "",
      "municipality": "Бахчисарайский район",
      "latitude": 44.55745,
      "longitude": 33.87117
    },
    {
      "id": 260,
      "region_id": 16,
      "name": "Бахчисарай",
      "county": "",
      "municipality": "Бахчисарайский район",
      "latitude": 44.75051,
      "longitude": 33.86898
    },
    {
      "id": 3065,
      "region_id": 16,
      "name": "Баштановка",
      "county": "",
      "municipality": "Бахчисарайский район",
      "latitude": 44.68862,
      "longitude": 33.89495
    },
    {
      "id": 345,
      "region_id": 16,
      "name": "Береговое",
      "county": "",
      "municipality": "Бахчисарайский район",
      "latitude": 44.89839,
      "longitude": 33.62158
    },
    {
      "id": 3067,
      "region_id": 16,
      "name": "Богатырь",
      "county": "",
      "municipality": "Бахчисарайский район",
      "latitude": 44.58,
      "longitude": 34.01
    },
    {
      "id": 3069,
      "region_id": 16,
      "name": "Брянское",
      "county": "",
      "municipality": "Бахчисарайский район",
      "latitude": 44.86631,
      "longitude": 33.80474
    },
    {
      "id": 3071,
      "region_id": 16,
      "name": "Отрадное",
      "county": "",
      "municipality": "Бахчисарайский район",
      "latitude": 45.60659,
      "longitude": 34.33923
    },
    {
      "id": 3073,
      "region_id": 16,
      "name": "Викторовка",
      "county": "",
      "municipality": "Бахчисарайский район",
      "latitude": 44.78667,
      "longitude": 33.8008
    },
    {
      "id": 3075,
      "region_id": 16,
      "name": "Вилино",
      "county": "",
      "municipality": "Бахчисарайский район",
      "latitude": 44.84647,
      "longitude": 33.67446
    },
    {
      "id": 3079,
      "region_id": 16,
      "name": "Большое Садовое",
      "county": "",
      "municipality": "Бахчисарайский район",
      "latitude": 44.63926,
      "longitude": 33.8287
    },
    {
      "id": 3081,
      "region_id": 16,
      "name": "Верхоречье",
      "county": "",
      "municipality": "Бахчисарайский район",
      "latitude": 44.69742,
      "longitude": 33.99464
    },
    {
      "id": 3083,
      "region_id": 16,
      "name": "Высокое",
      "county": "",
      "municipality": "Бахчисарайский район",
      "latitude": 44.63489,
      "longitude": 33.95598
    },
    {
      "id": 3085,
      "region_id": 16,
      "name": "Горка",
      "county": "",
      "municipality": "Бахчисарайский район",
      "latitude": 44.88777,
      "longitude": 33.86553
    },
    {
      "id": 3087,
      "region_id": 16,
      "name": "Глубокий Яр",
      "county": "",
      "municipality": "Бахчисарайский район",
      "latitude": 44.7928,
      "longitude": 33.91289
    },
    {
      "id": 3089,
      "region_id": 16,
      "name": "Голубинка",
      "county": "",
      "municipality": "Бахчисарайский район",
      "latitude": 44.59412,
      "longitude": 33.91477
    },
    {
      "id": 3091,
      "region_id": 16,
      "name": "Дубровка",
      "county": "",
      "municipality": "Бахчисарайский район",
      "latitude": 44.91452,
      "longitude": 33.83847
    },
    {
      "id": 3093,
      "region_id": 16,
      "name": "Дачное",
      "county": "",
      "municipality": "Бахчисарайский район",
      "latitude": 44.71608,
      "longitude": 33.82473
    },
    {
      "id": 3095,
      "region_id": 16,
      "name": "Долинное",
      "county": "",
      "municipality": "Бахчисарайский район",
      "latitude": 45.06374,
      "longitude": 34.93161
    },
    {
      "id": 3097,
      "region_id": 16,
      "name": "Дорожное",
      "county": "",
      "municipality": "Бахчисарайский район",
      "latitude": 44.87141,
      "longitude": 33.82072
    },
    {
      "id": 3099,
      "region_id": 16,
      "name": "Заветное",
      "county": "",
      "municipality": "Бахчисарайский район",
      "latitude": 45.1337,
      "longitude": 36.41129
    },
    {
      "id": 3101,
      "region_id": 16,
      "name": "Железнодорожное",
      "county": "",
      "municipality": "Бахчисарайский район",
      "latitude": 44.71756,
      "longitude": 33.80281
    },
    {
      "id": 3103,
      "region_id": 16,
      "name": "Залесное",
      "county": "",
      "municipality": "Бахчисарайский район",
      "latitude": 44.62386,
      "longitude": 33.78537
    },
    {
      "id": 3105,
      "region_id": 16,
      "name": "Зеленое",
      "county": "",
      "municipality": "Бахчисарайский район",
      "latitude": 44.59504,
      "longitude": 34.01051
    },
    {
      "id": 3107,
      "region_id": 16,
      "name": "Зубакино",
      "county": "",
      "municipality": "Бахчисарайский район",
      "latitude": 44.86462,
      "longitude": 33.89165
    },
    {
      "id": 3109,
      "region_id": 16,
      "name": "Казанки",
      "county": "",
      "municipality": "Бахчисарайский район",
      "latitude": 44.87053,
      "longitude": 33.9305
    },
    {
      "id": 3111,
      "region_id": 16,
      "name": "Каштаны",
      "county": "",
      "municipality": "Бахчисарайский район",
      "latitude": 44.86696,
      "longitude": 33.79305
    },
    {
      "id": 3113,
      "region_id": 16,
      "name": "Кочергино",
      "county": "",
      "municipality": "Бахчисарайский район",
      "latitude": 44.83837,
      "longitude": 33.74569
    },
    {
      "id": 3115,
      "region_id": 16,
      "name": "Красная Заря",
      "county": "",
      "municipality": "Бахчисарайский район",
      "latitude": 44.75273,
      "longitude": 33.719
    },
    {
      "id": 3117,
      "region_id": 16,
      "name": "Красный Мак",
      "county": "",
      "municipality": "Бахчисарайский район",
      "latitude": 44.63951,
      "longitude": 33.78133
    },
    {
      "id": 3119,
      "region_id": 16,
      "name": "Кудрино",
      "county": "",
      "municipality": "Бахчисарайский район",
      "latitude": 44.70329,
      "longitude": 33.94433
    },
    {
      "id": 3121,
      "region_id": 16,
      "name": "Куйбышево",
      "county": "",
      "municipality": "Бахчисарайский район",
      "latitude": 44.62787,
      "longitude": 33.86987
    },
    {
      "id": 3123,
      "region_id": 16,
      "name": "Малое Садовое",
      "county": "",
      "municipality": "Бахчисарайский район",
      "latitude": 44.64074,
      "longitude": 33.83979
    },
    {
      "id": 3125,
      "region_id": 16,
      "name": "Малиновка",
      "county": "",
      "municipality": "Бахчисарайский район",
      "latitude": 45.13136,
      "longitude": 34.73729
    },
    {
      "id": 3127,
      "region_id": 16,
      "name": "Маловидное",
      "county": "",
      "municipality": "Бахчисарайский район",
      "latitude": 44.7971,
      "longitude": 33.8125
    },
    {
      "id": 3129,
      "region_id": 16,
      "name": "Машино",
      "county": "",
      "municipality": "Бахчисарайский район",
      "latitude": 45.38817,
      "longitude": 34.14479
    },
    {
      "id": 3131,
      "region_id": 16,
      "name": "Многоречье",
      "county": "",
      "municipality": "Бахчисарайский район",
      "latitude": 44.5579,
      "longitude": 34.07428
    },
    {
      "id": 3133,
      "region_id": 16,
      "name": "Мостовое",
      "county": "",
      "municipality": "Бахчисарайский район",
      "latitude": 44.72885,
      "longitude": 33.80996
    },
    {
      "id": 3135,
      "region_id": 16,
      "name": "Нагорное",
      "county": "",
      "municipality": "Бахчисарайский район",
      "latitude": 44.57558,
      "longitude": 33.99108
    },
    {
      "id": 3137,
      "region_id": 16,
      "name": "Научный",
      "county": "",
      "municipality": "Бахчисарайский район",
      "latitude": 44.7246,
      "longitude": 34.01074
    },
    {
      "id": 3139,
      "region_id": 16,
      "name": "Некрасовка",
      "county": "",
      "municipality": "Бахчисарайский район",
      "latitude": 44.74683,
      "longitude": 33.6918
    },
    {
      "id": 3141,
      "region_id": 16,
      "name": "Нижняя Голубинка",
      "county": "",
      "municipality": "Бахчисарайский район",
      "latitude": 44.60378,
      "longitude": 33.88796
    },
    {
      "id": 3143,
      "region_id": 16,
      "name": "Новенькое",
      "county": "",
      "municipality": "Бахчисарайский район",
      "latitude": 44.73523,
      "longitude": 33.80257
    },
    {
      "id": 3145,
      "region_id": 16,
      "name": "Нововасильевка",
      "county": "",
      "municipality": "Бахчисарайский район",
      "latitude": 44.84828,
      "longitude": 33.91888
    },
    {
      "id": 3147,
      "region_id": 16,
      "name": "Новополье",
      "county": "",
      "municipality": "Бахчисарайский район",
      "latitude": 44.57275,
      "longitude": 33.90877
    },
    {
      "id": 3149,
      "region_id": 16,
      "name": "Новопавловка",
      "county": "",
      "municipality": "Бахчисарайский район",
      "latitude": 44.81595,
      "longitude": 33.97608
    },
    {
      "id": 3151,
      "region_id": 16,
      "name": "Новоульяновка",
      "county": "",
      "municipality": "Бахчисарайский район",
      "latitude": 45.58053,
      "longitude": 32.94199
    },
    {
      "id": 3153,
      "region_id": 3,
      "name": "Песчаное",
      "county": "",
      "municipality": "Бахчисарайский район",
      "latitude": 46.01667,
      "longitude": 34.73333
    },
    {
      "id": 3155,
      "region_id": 16,
      "name": "Предущельное",
      "county": "",
      "municipality": "Бахчисарайский район",
      "latitude": 44.70864,
      "longitude": 33.86829
    },
    {
      "id": 3157,
      "region_id": 16,
      "name": "Плодовое",
      "county": "",
      "municipality": "Бахчисарайский район",
      "latitude": 44.87194,
      "longitude": 33.8523
    },
    {
      "id": 3159,
      "region_id": 16,
      "name": "Плотинное",
      "county": "",
      "municipality": "Бахчисарайский район",
      "latitude": 44.58295,
      "longitude": 33.96344
    },
    {
      "id": 3161,
      "region_id": 16,
      "name": "Поляна",
      "county": "",
      "municipality": "Бахчисарайский район",
      "latitude": 44.5512,
      "longitude": 33.90139
    },
    {
      "id": 3163,
      "region_id": 16,
      "name": "Почтовое",
      "county": "",
      "municipality": "Бахчисарайский район",
      "latitude": 44.83301,
      "longitude": 33.9487
    },
    {
      "id": 3165,
      "region_id": 16,
      "name": "Приятное Свидание",
      "county": "",
      "municipality": "Бахчисарайский район",
      "latitude": 44.8515,
      "longitude": 34.01029
    },
    {
      "id": 3167,
      "region_id": 16,
      "name": "Прохладное",
      "county": "",
      "municipality": "Бахчисарайский район",
      "latitude": 44.75595,
      "longitude": 33.9913
    },
    {
      "id": 3169,
      "region_id": 16,
      "name": "Путиловка",
      "county": "",
      "municipality": "Бахчисарайский район",
      "latitude": 44.56874,
      "longitude": 33.88975
    },
    {
      "id": 3171,
      "region_id": 16,
      "name": "Репино",
      "county": "",
      "municipality": "Бахчисарайский район",
      "latitude": 44.82463,
      "longitude": 33.8414
    },
    {
      "id": 3173,
      "region_id": 16,
      "name": "Речное",
      "county": "",
      "municipality": "Бахчисарайский район",
      "latitude": 45.1982,
      "longitude": 35.03269
    },
    {
      "id": 3175,
      "region_id": 16,
      "name": "Розовое",
      "county": "",
      "municipality": "Бахчисарайский район",
      "latitude": 44.83544,
      "longitude": 33.82278
    },
    {
      "id": 3177,
      "region_id": 16,
      "name": "Рассадное",
      "county": "",
      "municipality": "Бахчисарайский район",
      "latitude": 44.84002,
      "longitude": 33.63798
    },
    {
      "id": 3179,
      "region_id": 16,
      "name": "Растущее",
      "county": "",
      "municipality": "Бахчисарайский район",
      "latitude": 44.85725,
      "longitude": 33.88633
    },
    {
      "id": 3181,
      "region_id": 16,
      "name": "Самохвалово",
      "county": "",
      "municipality": "Бахчисарайский район",
      "latitude": 44.8236,
      "longitude": 33.9223
    },
    {
      "id": 3183,
      "region_id": 16,
      "name": "Севастьяновка",
      "county": "",
      "municipality": "Бахчисарайский район",
      "latitude": 44.82023,
      "longitude": 33.93036
    },
    {
      "id": 3185,
      "region_id": 16,
      "name": "Синапное",
      "county": "",
      "municipality": "Бахчисарайский район",
      "latitude": 44.67216,
      "longitude": 34.00965
    },
    {
      "id": 3187,
      "region_id": 16,
      "name": "Сирень",
      "county": "",
      "municipality": "Бахчисарайский район",
      "latitude": 44.70112,
      "longitude": 33.79843
    },
    {
      "id": 3189,
      "region_id": 16,
      "name": "Скалистое",
      "county": "",
      "municipality": "Бахчисарайский район",
      "latitude": 44.80523,
      "longitude": 33.97881
    },
    {
      "id": 3191,
      "region_id": 16,
      "name": "Соколиное",
      "county": "",
      "municipality": "Бахчисарайский район",
      "latitude": 44.55127,
      "longitude": 33.95717
    },
    {
      "id": 3193,
      "region_id": 16,
      "name": "Солнечноселье",
      "county": "",
      "municipality": "Бахчисарайский район",
      "latitude": 44.60673,
      "longitude": 33.94881
    },
    {
      "id": 3195,
      "region_id": 16,
      "name": "Стальное",
      "county": "",
      "municipality": "Бахчисарайский район",
      "latitude": 44.86991,
      "longitude": 33.87588
    },
    {
      "id": 3197,
      "region_id": 16,
      "name": "Суворово",
      "county": "",
      "municipality": "Бахчисарайский район",
      "latitude": 44.73386,
      "longitude": 33.6291
    },
    {
      "id": 3199,
      "region_id": 16,
      "name": "Тенистое",
      "county": "",
      "municipality": "Бахчисарайский район",
      "latitude": 44.74201,
      "longitude": 33.66719
    },
    {
      "id": 3201,
      "region_id": 16,
      "name": "Табачное",
      "county": "",
      "municipality": "Бахчисарайский район",
      "latitude": 44.9031,
      "longitude": 33.67698
    },
    {
      "id": 3203,
      "region_id": 16,
      "name": "Танковое",
      "county": "",
      "municipality": "Бахчисарайский район",
      "latitude": 45.94904,
      "longitude": 33.82251
    },
    {
      "id": 3205,
      "region_id": 16,
      "name": "Тополя",
      "county": "",
      "municipality": "Бахчисарайский район",
      "latitude": 44.44162,
      "longitude": 34.09092
    },
    {
      "id": 3207,
      "region_id": 16,
      "name": "Трудолюбовка",
      "county": "",
      "municipality": "Бахчисарайский район",
      "latitude": 45.21765,
      "longitude": 35.15338
    },
    {
      "id": 3209,
      "region_id": 16,
      "name": "Тургеневка",
      "county": "",
      "municipality": "Бахчисарайский район",
      "latitude": 44.69774,
      "longitude": 33.83089
    },
    {
      "id": 3211,
      "region_id": 16,
      "name": "Угловое",
      "county": "",
      "municipality": "Бахчисарайский район",
      "latitude": 44.82051,
      "longitude": 33.60351
    },
    {
      "id": 3213,
      "region_id": 16,
      "name": "Фурмановка",
      "county": "",
      "municipality": "Бахчисарайский район",
      "latitude": 44.76111,
      "longitude": 33.7427
    },
    {
      "id": 3215,
      "region_id": 16,
      "name": "Ходжа Сала",
      "county": "",
      "municipality": "Бахчисарайский район",
      "latitude": 44.60717,
      "longitude": 33.79254
    },
    {
      "id": 3217,
      "region_id": 16,
      "name": "Холмовка",
      "county": "",
      "municipality": "Бахчисарайский район",
      "latitude": 44.65806,
      "longitude": 33.75503
    },
    {
      "id": 3219,
      "region_id": 16,
      "name": "Шевченково",
      "county": "",
      "municipality": "Бахчисарайский район",
      "latitude": 44.86245,
      "longitude": 33.75962
    },
    {
      "id": 3221,
      "region_id": 16,
      "name": "Счастливое",
      "county": "",
      "municipality": "Бахчисарайский район",
      "latitude": 44.57601,
      "longitude": 34.06687
    },
    {
      "id": 3223,
      "region_id": 16,
      "name": "Ермаково",
      "county": "",
      "municipality": "Джанкойский район",
      "latitude": 45.85,
      "longitude": 34.48
    },
    {
      "id": 3225,
      "region_id": 16,
      "name": "Изумрудное",
      "county": "",
      "municipality": "Джанкойский район",
      "latitude": 45.73925,
      "longitude": 34.41242
    },
    {
      "id": 3227,
      "region_id": 16,
      "name": "Источное",
      "county": "",
      "municipality": "Джанкойский район",
      "latitude": 45.90838,
      "longitude": 34.01325
    }
  ]
}